     3.03           OBSERVATION DATA     I:IRNSS            RINEX VERSION / TYPE
OBS GEN             NPLI                25-JAN-25 00:00     PGM / RUN BY / DATE 
REF                                                         MARKER NAME         
0                                                           MARKER NUMBER       
Human                                                       MARKER TYPE         
NPLI                NPLI                                    OBSERVER / AGENCY   
01                  NGS-C60 CV42        1.0                 REC # / TYPE / VERS 
18730               L5S1                                    ANT # / TYPE        
  1243911.1339   5462557.3081   3038748.0760                APPROX POSITION XYZ 
        0.0000         0.0000         0.0000                ANTENNA: DELTA H/E/N
I    8 C5C L5C D5C S5C C9C L9C D9C S9C                      SYS / # / OBS TYPES 
DBHZ                                                        SIGNAL STRENGTH UNIT
SNR is mapped to RINEX snr flag value [1-9]                 COMMENT             
< 12dBHz -> 1; 12-17dBHz -> 2; 18-23dBHz -> 3               COMMENT             
24-29dBHz -> 4; 30-35dBHz -> 5; 36-41dBHz -> 6              COMMENT             
42-47dBHz -> 7; 48-53dBHz -> 8; >= 54dBHz -> 9              COMMENT             
                                                            COMMENT             
    30.000                                                  INTERVAL            
  2025     1    25     0     0    0.0000000     IRN         TIME OF FIRST OBS   
  2025     1    25    23    59   30.0000000     IRN         TIME OF LAST OBS    
                                                            SYS / PHASE SHIFT   
                                                            SYS / PHASE SHIFT   
                                                            END OF HEADER       
> 2025 01 25  0  0  0.0000000  0  8      -264.153582460203
I01         0.000 8         0.00008        -0.029 8        51.250           0.000 4         0.00004        -0.062 4        24.688  
I02  39063646.554 7 153290742.12407      -330.646 7        43.125    39063640.493 6 324709725.51706      -700.411 6        36.562  
I03         0.000 8         0.00008        -0.029 8        50.781           0.000 7         0.00007        -0.062 7        45.000  
I05         0.000 7         0.00007        -0.029 7        47.969           0.000 6         0.00006        -0.062 6        41.875  
I06  38486203.449 7 151024775.84407       -56.392 7        44.844    38486196.583 6 319909746.69306      -120.143 6        39.375  
I07         0.000 7         0.00007        -0.029 7        44.844           0.000 6         0.00006        -0.062 6        40.312  
I09  36201348.629 8 142058869.87508      -102.594 8        50.938    36201343.252 7 300916880.78807      -217.517 7        45.000  
I10  38863453.104 7 152505367.55107       -60.451 7        43.906    38863447.098 6 323045694.06306      -127.839 6        38.438  
> 2025 01 25  0  0 30.0000000  0  8      -261.778126585599
I01         0.000 8         0.00008         0.011 8        51.406           0.000 4         0.00004         0.024 4        24.219  
I02  39061114.141 7 153280804.56307      -331.935 7        43.281    39061108.177 6 324688675.13406      -702.507 6        37.188  
I03         0.000 8         0.00008         0.011 8        50.781           0.000 7         0.00007         0.024 7        45.000  
I05         0.000 8         0.00008         0.011 8        48.281           0.000 6         0.00006         0.024 6        41.562  
I06  38485770.438 7 151023076.94907       -56.598 7        44.844    38485763.371 6 319906147.97906      -119.977 6        38.906  
I07         0.000 7         0.00007         0.011 7        44.688           0.000 6         0.00006         0.024 6        40.312  
I09  36200565.016 8 142055794.75208      -102.352 8        51.094    36200559.467 7 300910366.87307      -216.791 7        44.844  
I10  38862991.902 7 152503557.45507       -60.247 7        43.906    38862985.828 6 323041859.83506      -127.730 6        38.438  
> 2025 01 25  0  1  0.0000000  0  8      -261.878103873346
I01         0.000 8         0.00008        -0.023 8        51.250           0.000 4         0.00004        -0.048 4        25.156  
I02  39058571.467 7 153270826.32207      -333.321 7        42.969    39058565.414 6 324667538.60306      -705.946 6        37.500  
I03         0.000 8         0.00008        -0.023 8        50.781           0.000 7         0.00007        -0.048 7        44.844  
I05         0.000 8         0.00008        -0.023 8        48.281           0.000 6         0.00006        -0.048 6        40.781  
I06  38485337.362 7 151021378.84707       -56.669 7        44.844    38485330.710 6 319902550.92006      -119.805 6        38.750  
I07         0.000 7         0.00007        -0.023 7        44.844           0.000 6         0.00006        -0.048 6        40.156  
I09  36199783.179 8 142052726.97608      -102.123 8        50.938    36199777.744 7 300903868.51407      -216.363 7        44.844  
I10  38862530.545 7 152501747.70707       -60.409 7        43.750    38862524.177 6 323038026.34006      -127.758 6        38.438  
> 2025 01 25  0  1 30.0000000  0  8      -261.275862580192
I01         0.000 8         0.00008        -0.064 8        51.250           0.000 3         0.00003        -0.135 3        23.438  
I02  39056018.513 7 153260806.56107      -334.908 7        43.125    39056012.545 6 324646314.12906      -709.732 6        38.438  
I03         0.000 8         0.00008        -0.064 8        50.781           0.000 7         0.00007        -0.135 7        45.625  
I05         0.000 8         0.00008        -0.064 8        48.594           0.000 6         0.00006        -0.135 6        41.719  
I06  38484904.783 7 151019681.52507       -56.542 7        44.688    38484898.009 6 319898955.54706      -120.007 6        39.375  
I07         0.000 7         0.00007        -0.064 7        44.844           0.000 6         0.00006        -0.135 6        40.781  
I09  36199003.265 8 142049666.63808      -101.914 8        50.781    36198997.997 7 300897385.91307      -216.021 7        45.469  
I10  38862069.616 7 152499938.25807       -60.299 7        43.750    38862063.142 6 323034193.46406      -127.712 6        38.906  
> 2025 01 25  0  2  0.0000000  0  8      -261.369931226223
I01         0.000 8         0.00008        -0.033 8        51.094           0.000 3         0.00003        -0.070 3        23.438  
I02  39053454.651 7 153250745.29407      -336.197 7        43.281    39053449.068 6 324625001.72506      -711.763 6        38.750  
I03         0.000 8         0.00008        -0.033 8        50.781           0.000 7         0.00007        -0.070 7        45.469  
I05         0.000 8         0.00008        -0.033 8        48.438           0.000 6         0.00006        -0.070 6        41.719  
I06  38484471.994 7 151017985.00607       -56.601 7        44.531    38484465.375 6 319895361.87706      -119.753 6        39.219  
I07         0.000 7         0.00007        -0.033 7        44.844           0.000 6         0.00006        -0.070 6        40.781  
I09  36198225.336 8 142046613.77208      -101.622 8        50.938    36198220.093 7 300890919.13507      -215.354 7        45.625  
I10  38861608.703 7 152498129.15607       -60.401 7        44.062    38861602.110 6 323030361.35106      -127.698 6        38.750  
> 2025 01 25  0  2 30.0000000  0  8      -260.913782460963
I01         0.000 8         0.00008        -0.043 8        51.250           0.000 4         0.00004        -0.090 4        25.938  
I02  39050880.456 7 153240643.07907      -337.638 7        43.594    39050874.591 6 324603602.57906      -714.896 6        38.594  
I03         0.000 8         0.00008        -0.043 8        50.781           0.000 7         0.00007        -0.090 7        45.625  
I05         0.000 8         0.00008        -0.043 8        48.438           0.000 6         0.00006        -0.090 6        41.719  
I06  38484040.677 7 151016289.33907       -56.715 7        45.000    38484033.830 6 319891769.98106      -119.656 6        39.531  
I07         0.000 7         0.00007        -0.043 7        45.000           0.000 6         0.00006        -0.090 6        40.781  
I09  36197449.401 8 142043568.48808      -101.476 8        50.938    36197443.987 7 300884468.42507      -214.815 7        45.469  
I10  38861147.832 7 152496320.41707       -60.221 7        43.594    38861141.574 6 323026529.99706      -127.492 6        38.594  
> 2025 01 25  0  3  0.0000000  0  8      -261.507353003588
I01         0.000 8         0.00008        -0.078 8        51.250           0.000 3         0.00003        -0.165 3        22.969  
I02  39048295.301 7 153230499.68507      -339.013 7        43.594    39048289.607 6 324582116.20606      -717.847 6        38.750  
I03         0.000 8         0.00008        -0.078 8        50.781           0.000 7         0.00007        -0.165 7        45.625  
I05         0.000 8         0.00008        -0.078 8        48.125           0.000 6         0.00006        -0.165 6        41.719  
I06  38483609.050 7 151014594.48007       -56.396 7        44.844    38483601.944 6 319888179.82906      -119.956 6        39.531  
I07         0.000 7         0.00007        -0.078 7        45.000           0.000 6         0.00006        -0.165 6        40.781  
I09  36196675.163 8 142040530.87108      -101.317 8        50.938    36196669.650 7 300878033.96307      -214.455 7        45.312  
I10  38860686.721 7 152494512.03407       -60.336 7        43.594    38860680.641 6 323022699.38906      -128.192 6        38.750  
> 2025 01 25  0  3 30.0000000  0  8      -261.252168106466
I01         0.000 8         0.00008        -0.059 8        51.250           0.000 3         0.00003        -0.126 3        23.125  
I02  39045700.136 7 153220315.15907      -340.336 7        43.438    39045694.204 6 324560542.68806      -720.674 6        39.062  
I03         0.000 8         0.00008        -0.059 8        50.781           0.000 7         0.00007        -0.126 7        45.625  
I05         0.000 8         0.00008        -0.059 8        48.125           0.000 6         0.00006        -0.126 6        41.875  
I06  38483177.033 7 151012900.39907       -56.575 7        44.688    38483170.515 6 319884591.29006      -119.566 6        39.375  
I07         0.000 7         0.00007        -0.059 7        44.844           0.000 6         0.00006        -0.126 6        40.469  
I09  36195903.029 8 142037500.97608      -100.903 8        50.938    36195897.192 7 300871615.84907      -213.855 7        45.000  
I10  38860226.435 7 152492704.03807       -60.312 7        43.594    38860219.863 6 323018869.58506      -127.970 6        38.594  
> 2025 01 25  0  4  0.0000000  0  8      -261.376130039070
I01         0.000 8         0.00008        -0.057 8        51.250           0.000 4         0.00004        -0.121 4        25.781  
I02  39043093.928 7 153210089.83007      -341.612 7        43.438    39043088.571 6 324538882.77506      -723.361 6        38.906  
I03         0.000 8         0.00008        -0.057 8        50.625           0.000 7         0.00007        -0.121 7        45.469  
I05         0.000 8         0.00008        -0.057 8        48.281           0.000 6         0.00006        -0.121 6        41.875  
I06  38482745.716 7 151011207.18207       -56.543 7        44.688    38482739.270 6 319881004.61506      -119.797 6        39.688  
I07         0.000 7         0.00007        -0.057 7        44.844           0.000 6         0.00006        -0.121 6        40.625  
I09  36195133.013 8 142034478.88208      -100.651 8        50.938    36195127.327 7 300865214.25107      -213.305 7        45.156  
I10  38859765.402 7 152490896.41407       -60.338 7        43.594    38859759.190 6 323015040.59206      -127.846 6        38.750  
> 2025 01 25  0  4 30.0000000  0  8      -261.549488556903
I01         0.000 8         0.00008        -0.072 8        51.250           0.000 4         0.00004        -0.153 4        25.469  
I02  39040478.286 7 153199823.76707      -342.822 7        43.438    39040472.015 6 324517136.55706      -726.516 6        38.594  
I03         0.000 8         0.00008        -0.072 8        50.781           0.000 7         0.00007        -0.153 7        45.469  
I05         0.000 8         0.00008        -0.072 8        48.281           0.000 7         0.00007        -0.153 7        42.344  
I06  38482314.436 7 151009514.80507       -56.625 7        44.844    38482307.738 6 319877419.69906      -119.779 6        39.531  
I07         0.000 7         0.00007        -0.072 7        45.000           0.000 6         0.00006        -0.153 6        40.312  
I09  36194365.075 8 142031464.69408      -100.419 8        51.094    36194359.376 7 300858829.42107      -212.710 7        45.312  
I10  38859304.538 7 152489089.16807       -60.438 7        43.594    38859298.540 6 323011212.41506      -127.797 6        38.750  
> 2025 01 25  0  5  0.0000000  0  8      -262.657000714427
I01         0.000 8         0.00008        -0.046 8        51.094           0.000 4         0.00004        -0.098 4        25.312  
I02  39037851.696 7 153189517.62507      -344.320 7        43.281    39037845.543 6 324495305.44906      -729.281 6        38.594  
I03         0.000 8         0.00008        -0.046 8        50.625           0.000 7         0.00007        -0.098 7        45.469  
I05         0.000 8         0.00008        -0.046 8        48.125           0.000 7         0.00007        -0.098 7        42.500  
I06  38481882.907 7 151007823.26207       -56.653 7        44.844    38481876.303 6 319873836.55106      -119.571 6        39.844  
I07         0.000 7         0.00007        -0.046 7        44.844           0.000 6         0.00006        -0.098 6        40.156  
I09  36193598.390 8 142028458.43008       -99.956 8        51.094    36193592.644 7 300852461.35807      -211.969 7        45.469  
I10  38858843.967 7 152487282.31007       -60.260 7        43.438    38858838.082 6 323007385.05006      -127.635 6        38.906  
> 2025 01 25  0  5 30.0000000  0  8      -261.199896544968
I01         0.000 8         0.00008         0.017 8        51.094           0.000 3         0.00003         0.036 3        22.656  
I02  39035215.355 7 153179170.51307      -345.553 7        43.594    39035209.665 6 324473387.57606      -731.966 6        38.594  
I03         0.000 8         0.00008         0.017 8        50.781           0.000 7         0.00007         0.036 7        44.688  
I05         0.000 8         0.00008         0.017 8        48.125           0.000 6         0.00006         0.036 6        41.562  
I06  38481452.351 7 151006132.57607       -56.181 7        44.531    38481445.510 6 319870255.22306      -119.387 6        38.750  
I07         0.000 7         0.00007         0.017 7        44.688           0.000 6         0.00006         0.036 6        40.156  
I09  36192834.450 8 142025460.21608       -99.692 8        50.938    36192828.957 7 300846110.36507      -211.470 7        44.688  
I10  38858384.289 7 152485475.87907       -59.872 7        43.906    38858378.578 6 323003558.58206      -127.643 6        38.438  
> 2025 01 25  0  6  0.0000000  0  8      -261.313199331282
I01         0.000 8         0.00008        -0.049 8        51.094           0.000 4         0.00004        -0.104 4        24.844  
I02  39032568.399 7 153168783.14307      -346.937 7        43.594    39032562.411 6 324451384.41306      -734.816 6        38.906  
I03         0.000 8         0.00008        -0.049 8        50.781           0.000 7         0.00007        -0.104 7        45.625  
I05         0.000 8         0.00008        -0.049 8        48.438           0.000 6         0.00006        -0.104 6        41.875  
I06  38481021.839 7 151004442.76907       -56.376 7        44.844    38481015.038 6 319866675.75806      -119.333 6        39.844  
I07         0.000 7         0.00007        -0.049 7        45.000           0.000 6         0.00006        -0.104 6        40.156  
I09  36192072.983 8 142022470.11908       -99.550 8        51.094    36192067.375 7 300839776.57007      -211.007 7        45.312  
I10  38857923.792 7 152483669.87307       -60.381 7        43.438    38857918.091 6 322999733.02106      -127.767 6        39.062  
> 2025 01 25  0  6 30.0000000  0  8      -261.379535053109
I01         0.000 8         0.00008        -0.056 8        51.250           0.000 3         0.00003        -0.119 3        22.500  
I02  39029911.607 7 153158355.99907      -348.333 7        43.906    39029905.128 6 324429296.99706      -738.034 6        38.594  
I03         0.000 8         0.00008        -0.056 8        50.625           0.000 7         0.00007        -0.119 7        44.844  
I05         0.000 8         0.00008        -0.056 8        48.594           0.000 6         0.00006        -0.119 6        41.406  
I06  38480591.219 7 151002753.82407       -56.421 7        44.531    38480585.026 6 319863098.11506      -119.245 6        39.219  
I07         0.000 7         0.00007        -0.056 7        44.688           0.000 6         0.00006        -0.119 6        39.844  
I09  36191312.725 8 142019488.22808       -99.303 8        50.938    36191307.188 7 300833460.14107      -210.434 7        44.688  
I10  38857463.906 7 152481864.28907       -60.217 7        43.438    38857457.895 6 322995908.34906      -127.597 6        38.438  
> 2025 01 25  0  7  0.0000000  0  8      -261.413026463562
I01         0.000 8         0.00008        -0.115 8        51.094           0.000 4         0.00004        -0.244 4        24.062  
I02  39027243.929 7 153147888.70007      -349.708 7        43.906    39027237.694 6 324407124.52106      -740.905 6        38.750  
I03         0.000 8         0.00008        -0.115 8        50.625           0.000 7         0.00007        -0.244 7        44.844  
I05         0.000 8         0.00008        -0.115 8        48.594           0.000 6         0.00006        -0.244 6        41.250  
I06  38480161.171 7 151001065.76007       -56.532 7        44.688    38480154.576 6 319859522.33106      -119.610 6        38.750  
I07         0.000 7         0.00007        -0.115 7        44.688           0.000 6         0.00006        -0.244 6        39.688  
I09  36190555.122 8 142016514.59008       -99.149 8        50.938    36190549.452 7 300827161.21407      -209.899 7        44.688  
I10  38857003.671 7 152480059.14607       -60.450 7        43.438    38856998.058 6 322992084.61606      -127.866 6        38.594  
> 2025 01 25  0  7 30.0000000  0  8      -261.613628097750
I01         0.000 8         0.00008        -0.040 8        51.094           0.000 4         0.00004        -0.084 4        24.219  
I02  39024566.876 7 153137381.28907      -350.882 7        43.906    39024560.016 6 324384867.08406      -743.104 6        38.594  
I03         0.000 8         0.00008        -0.040 8        50.625           0.000 7         0.00007        -0.084 7        44.844  
I05         0.000 8         0.00008        -0.040 8        48.750           0.000 6         0.00006        -0.084 6        41.562  
I06  38479731.373 7 150999378.56607       -56.383 7        44.844    38479724.344 6 319855948.41606      -119.012 6        39.062  
I07         0.000 7         0.00007        -0.040 7        44.844           0.000 6         0.00006        -0.084 6        39.844  
I09  36189799.413 8 142013549.31508       -98.715 8        50.938    36189793.911 7 300820879.98907      -209.251 7        44.844  
I10  38856543.969 7 152478254.44807       -60.332 7        43.594    38856538.080 6 322988261.85906      -127.607 6        38.438  
> 2025 01 25  0  8  0.0000000  0  8      -261.264648851219
I01         0.000 8         0.00008        -0.006 8        51.094           0.000 3         0.00003        -0.013 3        23.906  
I02  39021878.960 7 153126834.11707      -351.996 7        44.219    39021872.271 6 324362525.41306      -746.108 6        38.750  
I03         0.000 8         0.00008        -0.006 8        50.625           0.000 7         0.00007        -0.013 7        44.844  
I05         0.000 8         0.00008        -0.006 8        48.906           0.000 6         0.00006        -0.013 6        41.406  
I06  38479301.951 7 150997692.24407       -55.995 7        44.688    38479295.240 6 319852376.35006      -119.166 6        39.219  
I07         0.000 7         0.00007        -0.006 7        44.688           0.000 6         0.00006        -0.013 6        39.375  
I09  36189045.766 8 142010592.47708       -98.530 8        50.938    36189040.545 7 300814616.64207      -208.432 7        44.844  
I10  38856084.067 7 152476450.21707       -60.216 7        43.281    38856078.573 6 322984440.03406      -127.449 6        38.750  
> 2025 01 25  0  8 30.0000000  0  8      -260.993788847878
I01         0.000 8         0.00008        -0.036 8        51.094           0.000 4         0.00004        -0.077 4        25.781  
I02  39019181.191 7 153116247.30207      -353.376 7        44.219    39019174.534 6 324340099.77106      -748.906 6        39.219  
I03         0.000 8         0.00008        -0.036 8        50.625           0.000 7         0.00007        -0.077 7        45.312  
I05         0.000 8         0.00008        -0.036 8        49.062           0.000 6         0.00006        -0.077 6        41.562  
I06  38478872.017 7 150996006.80607       -56.446 7        44.375    38478865.201 6 319848806.13606      -119.056 6        40.000  
I07         0.000 7         0.00007        -0.036 7        44.531           0.000 6         0.00006        -0.077 6        39.688  
I09  36188294.406 8 142007644.14908       -98.174 8        50.625    36188289.436 7 300808371.31607      -207.842 7        45.625  
I10  38855624.990 7 152474646.44007       -60.194 7        43.906    38855619.095 6 322980619.23606      -127.479 6        39.219  
> 2025 01 25  0  9  0.0000000  0  8      -261.489100566609
I01         0.000 8         0.00008        -0.030 8        51.094           0.000 3         0.00003        -0.063 3        22.344  
I02  39016473.325 7 153105620.82607      -354.732 7        44.375    39016466.616 6 324317590.11406      -751.518 6        40.000  
I03         0.000 8         0.00008        -0.030 8        50.625           0.000 7         0.00007        -0.063 7        45.312  
I05         0.000 8         0.00008        -0.030 8        48.750           0.000 6         0.00006        -0.063 6        41.719  
I06  38478442.925 7 150994322.30207       -56.272 7        44.844    38478435.736 6 319845237.88406      -118.792 6        39.688  
I07         0.000 7         0.00007        -0.030 7        44.531           0.000 6         0.00006        -0.063 6        39.844  
I09  36187545.548 8 142004704.39508       -97.911 8        50.781    36187540.090 7 300802144.16607      -207.369 7        45.469  
I10  38855165.191 7 152472843.15707       -60.223 7        43.438    38855159.301 6 322976799.43506      -127.534 6        39.219  
> 2025 01 25  0  9 30.0000000  0  8      -261.261847885582
I01         0.000 8         0.00008        -0.057 8        50.938           0.000 3         0.00003        -0.121 3        23.594  
I02  39013755.532 7 153094955.15307      -356.334 7        44.375    39013748.757 6 324294997.43906      -754.768 6        39.844  
I03         0.000 8         0.00008        -0.057 8        50.469           0.000 7         0.00007        -0.121 7        45.469  
I05         0.000 8         0.00008        -0.057 8        48.750           0.000 6         0.00006        -0.121 6        41.406  
I06  38478014.223 7 150992638.68807       -56.147 7        45.156    38478007.122 6 319841671.55206      -119.154 6        39.531  
I07         0.000 7         0.00007        -0.057 7        44.688           0.000 6         0.00006        -0.121 6        40.000  
I09  36186798.450 8 142001773.30908       -97.695 8        50.781    36186793.358 7 300795935.36007      -206.865 7        45.625  
I10  38854705.370 7 152471040.35707       -60.055 7        43.125    38854700.071 6 322972980.66806      -127.162 6        39.062  
> 2025 01 25  0 10  0.0000000  0  8      -260.917005623327
I01         0.000 8         0.00008        -0.065 8        50.938           0.000 4         0.00004        -0.138 4        25.469  
I02  39011027.330 7 153084249.94907      -357.669 7        44.375    39011020.884 6 324272321.02906      -757.447 6        39.844  
I03         0.000 8         0.00008        -0.065 8        50.625           0.000 7         0.00007        -0.138 7        45.469  
I05         0.000 8         0.00008        -0.065 8        48.438           0.000 6         0.00006        -0.138 6        41.875  
I06  38477585.149 7 150990955.98007       -56.140 7        45.312    38477578.525 6 319838107.14606      -119.020 6        39.844  
I07         0.000 7         0.00007        -0.065 7        44.688           0.000 6         0.00006        -0.138 6        39.844  
I09  36186053.791 8 141998850.98108       -97.473 8        50.781    36186048.643 7 300789745.09907      -206.062 7        45.625  
I10  38854246.207 7 152469238.06207       -60.053 7        43.125    38854241.039 6 322969162.98406      -127.459 6        39.375  
> 2025 01 25  0 10 30.0000000  0  8      -260.976550009233
I01         0.000 8         0.00008        -0.017 8        51.094           0.000 4         0.00004        -0.036 4        25.000  
I02  39008289.440 7 153073505.75107      -359.002 7        44.219    39008283.008 6 324249561.99906      -759.962 6        39.688  
I03         0.000 8         0.00008        -0.017 8        50.625           0.000 7         0.00007        -0.036 7        45.312  
I05         0.000 8         0.00008        -0.017 8        48.594           0.000 6         0.00006        -0.036 6        41.406  
I06  38477156.095 7 150989274.19607       -55.930 7        44.844    38477149.282 6 319834544.68106      -118.735 6        39.219  
I07         0.000 7         0.00007        -0.017 7        44.688           0.000 6         0.00006        -0.036 6        39.375  
I09  36185311.411 8 141995937.49208       -96.904 8        50.781    36185306.252 7 300783573.57107      -205.457 7        45.469  
I10  38853787.102 7 152467436.26307       -59.879 7        43.438    38853782.050 6 322965346.35706      -127.456 6        39.062  
> 2025 01 25  0 11  0.0000000  0  8      -260.881100899042
I01         0.000 8         0.00008         0.017 8        51.094           0.000 4         0.00004         0.036 4        24.688  
I02  39005541.529 7 153062722.70207      -359.940 7        44.531    39005535.037 6 324226720.72106      -762.790 6        39.844  
I03         0.000 8         0.00008         0.017 8        50.625           0.000 7         0.00007         0.036 7        45.156  
I05         0.000 8         0.00008         0.017 8        48.594           0.000 6         0.00006         0.036 6        41.250  
I06  38476728.280 7 150987593.35307       -55.977 7        45.000    38476721.149 6 319830984.19806      -118.606 6        39.375  
I07         0.000 7         0.00007         0.017 7        44.375           0.000 6         0.00006         0.036 6        39.375  
I09  36184571.187 8 141993032.93408       -96.573 8        50.625    36184566.208 7 300777420.94607      -204.696 7        45.625  
I10  38853328.065 7 152465635.00107       -59.922 7        43.438    38853323.446 6 322961530.85006      -126.922 6        39.062  
> 2025 01 25  0 11 30.0000000  0  8      -261.314986201536
I01         0.000 8         0.00008        -0.006 8        50.938           0.000 4         0.00004        -0.012 4        24.062  
I02  39002783.814 7 153051900.69307      -361.359 7        44.375    39002777.171 6 324203796.88406      -765.608 6        39.531  
I03         0.000 8         0.00008        -0.006 8        50.469           0.000 7         0.00007        -0.012 7        44.688  
I05         0.000 8         0.00008        -0.006 8        48.750           0.000 6         0.00006        -0.012 6        40.625  
I06  38476300.167 7 150985913.42107       -55.890 7        45.156    38476292.882 6 319827425.66806      -118.676 6        38.750  
I07         0.000 7         0.00007        -0.006 7        44.375           0.000 6         0.00006        -0.012 6        39.062  
I09  36183833.199 8 141990137.35608       -96.307 8        50.625    36183828.226 7 300771287.34107      -204.076 7        45.156  
I10  38852869.194 7 152463834.25207       -60.008 7        43.281    38852863.972 6 322957716.43106      -126.994 6        38.594  
> 2025 01 25  0 12  0.0000000  0  8      -261.538904051876
I01         0.000 8         0.00008        -0.102 8        50.938           0.000 4         0.00004        -0.216 4        24.375  
I02  39000016.315 7 153041039.96307      -362.628 7        44.219    39000009.664 6 324180791.03206      -768.860 6        40.469  
I03         0.000 8         0.00008        -0.102 8        50.469           0.000 7         0.00007        -0.216 7        45.156  
I05         0.000 8         0.00008        -0.102 8        49.062           0.000 6         0.00006        -0.216 6        40.625  
I06  38475872.030 7 150984234.45507       -56.207 7        45.156    38475864.957 6 319823869.16506      -118.756 6        39.062  
I07         0.000 7         0.00007        -0.102 7        44.375           0.000 6         0.00006        -0.216 6        39.688  
I09  36183097.593 8 141987250.88808       -96.131 8        50.625    36183092.672 7 300765173.04707      -203.612 7        45.469  
I10  38852410.291 7 152462034.05807       -60.313 7        43.281    38852405.076 6 322953903.17406      -127.704 6        38.906  
> 2025 01 25  0 12 30.0000000  0  8      -261.897891279133
I01         0.000 8         0.00008        -0.044 8        50.938           0.000 4         0.00004        -0.094 4        24.688  
I02  38997238.608 7 153030140.23307      -363.958 7        44.531    38997231.855 6 324157702.56106      -771.143 6        40.000  
I03         0.000 8         0.00008        -0.044 8        50.469           0.000 7         0.00007        -0.094 7        45.312  
I05         0.000 8         0.00008        -0.044 8        49.062           0.000 6         0.00006        -0.094 6        40.938  
I06  38475444.887 7 150982556.43807       -55.940 7        45.312    38475437.256 6 319820314.70006      -118.930 6        39.375  
I07         0.000 7         0.00007        -0.044 7        44.531           0.000 6         0.00006        -0.094 6        39.375  
I09  36182364.326 8 141984373.57908       -95.757 8        50.625    36182359.109 7 300759078.15107      -202.963 7        45.312  
I10  38851952.077 7 152460234.40307       -60.019 7        43.438    38851946.727 6 322950091.08106      -127.046 6        39.062  
> 2025 01 25  0 13  0.0000000  0  8      -267.581898148872
I01         0.000 8         0.00008        -0.010 8        50.938           0.000 3         0.00003        -0.021 3        22.812  
I02  38994450.928 7 153019201.96107      -365.112 7        44.375    38994442.909 6 324134532.78506      -773.860 6        40.000  
I03         0.000 8         0.00008        -0.010 8        50.469           0.000 7         0.00007        -0.021 7        45.156  
I05         0.000 8         0.00008        -0.010 8        49.062           0.000 6         0.00006        -0.021 6        41.250  
I06  38475015.333 7 150980879.08407       -55.777 7        45.000    38475008.035 6 319816761.93206      -118.571 6        38.906  
I07         0.000 7         0.00007        -0.010 7        44.375           0.000 6         0.00006        -0.021 6        39.375  
I09  36181631.047 8 141981505.20308       -95.430 8        50.625    36181627.012 7 300753002.49307      -202.196 7        45.625  
I10  38851491.968 7 152458435.00407       -59.897 7        43.594    38851486.367 6 322946279.86006      -127.045 6        39.062  
> 2025 01 25  0 13 30.0000000  0  8      -262.628747283371
I01         0.000 8         0.00008         0.069 8        50.938           0.000 3         0.00003         0.146 3        22.969  
I02  38991654.166 7 153008226.10607      -366.246 7        44.531    38991647.178 6 324111282.73106      -776.288 6        40.156  
I03         0.000 8         0.00008         0.069 8        50.469           0.000 7         0.00007         0.146 7        45.156  
I05         0.000 8         0.00008         0.069 8        49.219           0.000 6         0.00006         0.146 6        41.875  
I06  38474589.999 7 150979203.27007       -55.653 7        45.156    38474582.890 6 319813211.79106      -118.132 6        39.219  
I07         0.000 7         0.00007         0.069 7        44.531           0.000 6         0.00006         0.146 6        39.531  
I09  36180905.070 8 141978646.76708       -95.065 8        50.625    36180899.755 7 300746947.25107      -201.130 7        45.625  
I10  38851035.066 7 152456636.76307       -59.520 7        43.438    38851029.648 6 322942470.42906      -126.754 6        39.219  
> 2025 01 25  0 14  0.0000000  0  8      -262.548448308423
I01         0.000 8         0.00008        -0.079 8        50.781           0.000 4         0.00004        -0.168 4        24.531  
I02  38988847.899 7 152997211.75007      -367.918 7        44.688    38988840.517 6 324087951.44806      -779.401 6        39.688  
I03         0.000 8         0.00008        -0.079 8        50.469           0.000 7         0.00007        -0.168 7        44.531  
I05         0.000 8         0.00008        -0.079 8        49.219           0.000 6         0.00006        -0.168 6        41.406  
I06  38474163.401 7 150977528.11007       -55.907 7        45.312    38474155.598 6 319809663.36206      -118.485 6        38.594  
I07         0.000 7         0.00007        -0.079 7        44.531           0.000 6         0.00006        -0.168 6        38.906  
I09  36180178.892 8 141975797.40008       -94.947 8        50.625    36180173.721 7 300740911.56107      -201.094 7        44.844  
I10  38850577.102 7 152454838.81207       -60.225 7        43.438    38850571.523 6 322938661.93706      -126.854 6        38.750  
> 2025 01 25  0 14 30.0000000  0  8      -263.184382186495
I01         0.000 8         0.00008         0.044 8        50.781           0.000 3         0.00003         0.092 3        22.344  
I02  38986031.301 7 152986159.07407      -368.928 7        44.688    38986024.124 6 324064539.00106      -781.523 6        40.469  
I03         0.000 8         0.00008         0.044 8        50.469           0.000 7         0.00007         0.092 7        45.312  
I05         0.000 8         0.00008         0.044 8        49.219           0.000 7         0.00007         0.092 7        42.500  
I06  38473736.796 7 150975853.95307       -55.671 7        45.469    38473729.025 6 319806117.05706      -117.992 6        39.062  
I07         0.000 7         0.00007         0.044 7        44.688           0.000 6         0.00006         0.092 6        39.688  
I09  36179455.187 8 141972957.53408       -94.378 8        50.625    36179449.781 7 300734895.99707      -200.060 7        45.156  
I10  38850118.886 7 152453041.42107       -59.723 7        43.281    38850113.156 6 322934854.65506      -126.530 6        38.906  
> 2025 01 25  0 15  0.0000000  0  8      -263.155614996030
I01         0.000 8         0.00008        -0.094 8        50.938           0.000 4         0.00004        -0.199 4        25.781  
I02  38983204.705 7 152975068.52207      -370.493 7        44.531    38983197.635 6 324041046.29306      -784.706 6        39.688  
I03         0.000 8         0.00008        -0.094 8        50.469           0.000 7         0.00007        -0.199 7        44.844  
I05         0.000 8         0.00008        -0.094 8        49.062           0.000 6         0.00006        -0.199 6        41.875  
I06  38473309.863 7 150974180.78007       -55.922 7        45.156    38473302.405 6 319802572.84106      -118.437 6        38.125  
I07         0.000 7         0.00007        -0.094 7        44.688           0.000 6         0.00006        -0.199 6        39.062  
I09  36178734.133 8 141970127.28308       -94.372 8        50.781    36178728.920 7 300728900.76707      -199.706 7        44.844  
I10  38849661.302 7 152451244.64807       -59.956 7        43.750    38849655.721 6 322931048.64806      -127.360 6        38.594  
> 2025 01 25  0 15 30.0000000  0  8      -263.325056765891
I01         0.000 8         0.00008         0.032 8        50.938           0.000 4         0.00004         0.068 4        25.312  
I02  38980369.340 7 152963940.31007      -371.377 7        44.844    38980361.675 6 324017473.84106      -786.832 6        40.312  
I03         0.000 8         0.00008         0.032 8        50.469           0.000 7         0.00007         0.068 7        45.156  
I05         0.000 8         0.00008         0.032 8        49.062           0.000 7         0.00007         0.068 7        42.188  
I06  38472884.282 7 150972508.58607       -55.605 7        45.312    38472876.295 6 319799030.70506      -117.894 6        39.219  
I07         0.000 7         0.00007         0.032 7        44.531           0.000 6         0.00006         0.068 6        39.375  
I09  36178015.241 8 141967306.66308       -93.699 8        50.625    36178009.890 7 300722925.94207      -198.761 7        45.156  
I10  38849203.677 7 152449448.46407       -59.827 7        43.281    38849197.749 6 322927243.90806      -126.683 6        39.219  
> 2025 01 25  0 16  0.0000000  0  8      -263.958176528267
I01         0.000 8         0.00008        -0.002 8        50.938           0.000 4         0.00004        -0.005 4        24.688  
I02  38977523.729 7 152952774.04907      -372.808 7        45.000    38977515.965 6 323993820.79306      -789.936 6        40.000  
I03         0.000 8         0.00008        -0.002 8        50.469           0.000 7         0.00007        -0.005 7        45.312  
I05         0.000 8         0.00008        -0.002 8        48.750           0.000 7         0.00007        -0.005 7        42.500  
I06  38472458.078 7 150970837.40907       -55.570 7        45.000    38472449.716 6 319795490.70306      -118.082 6        38.750  
I07         0.000 7         0.00007        -0.002 7        44.844           0.000 6         0.00006        -0.005 6        39.531  
I09  36177298.871 8 141964495.81008       -93.698 8        50.469    36177293.432 7 300716971.81707      -198.150 7        45.312  
I10  38848746.254 7 152447652.90507       -59.462 7        43.594    38848740.469 6 322923440.48206      -126.693 6        39.219  
> 2025 01 25  0 16 30.0000000  0  8      -264.075241306274
I01         0.000 8         0.00008        -0.021 8        50.938           0.000 4         0.00004        -0.044 4        26.875  
I02  38974668.512 7 152941570.40907      -374.030 7        45.000    38974661.485 6 323970088.58406      -792.365 6        40.312  
I03         0.000 8         0.00008        -0.021 8        50.469           0.000 7         0.00007        -0.044 7        45.156  
I05         0.000 8         0.00008        -0.021 8        48.906           0.000 7         0.00007        -0.044 7        42.031  
I06  38472032.955 7 150969167.20007       -55.584 7        45.469    38472024.727 6 319791952.74606      -118.046 6        39.062  
I07         0.000 7         0.00007        -0.021 7        44.688           0.000 6         0.00006        -0.044 6        39.375  
I09  36176585.031 8 141961694.75808       -93.256 8        50.469    36176579.547 7 300711038.45807      -197.497 7        45.000  
I10  38848288.399 7 152445857.97107       -59.748 7        43.438    38848282.679 6 322919638.38506      -126.964 6        39.219  
> 2025 01 25  0 17  0.0000000  0  8      -268.124638473371
I01         0.000 8         0.00008        -0.028 8        51.094           0.000 4         0.00004        -0.060 4        27.188  
I02  38971803.318 7 152930329.41807      -375.182 7        44.688    38971795.366 6 323946277.23106      -794.869 6        39.844  
I03         0.000 8         0.00008        -0.028 8        50.469           0.000 7         0.00007        -0.060 7        45.312  
I05         0.000 8         0.00008        -0.028 8        48.906           0.000 6         0.00006        -0.060 6        41.719  
I06  38471605.996 7 150967497.99607       -55.744 7        45.312    38471597.655 6 319788416.91106      -118.071 6        38.750  
I07         0.000 7         0.00007        -0.028 7        45.000           0.000 6         0.00006        -0.060 6        39.531  
I09  36175873.450 8 141958903.60908       -92.840 8        50.469    36175867.157 7 300705126.06607      -196.797 7        45.312  
I10  38847830.485 7 152444063.66707       -59.899 7        43.594    38847824.312 6 322915837.62806      -126.807 6        39.062  
> 2025 01 25  0 17 30.0000000  0  8      -264.243093758100
I01         0.000 8         0.00008        -0.059 8        51.094           0.000 4         0.00004        -0.125 4        24.062  
I02  38968929.957 7 152919051.20707      -376.669 7        44.688    38968922.477 6 323922387.04206      -797.809 6        39.531  
I03         0.000 8         0.00008        -0.059 8        50.469           0.000 7         0.00007        -0.125 7        45.312  
I05         0.000 8         0.00008        -0.059 8        48.594           0.000 6         0.00006        -0.125 6        41.875  
I06  38471182.049 7 150965829.82007       -55.591 7        45.312    38471174.312 6 319784883.27206      -117.899 6        38.594  
I07         0.000 7         0.00007        -0.059 7        45.156           0.000 6         0.00006        -0.125 6        39.375  
I09  36175164.986 8 141956122.49508       -92.537 8        50.312    36175159.622 7 300699234.95007      -196.202 7        45.156  
I10  38847374.577 7 152442270.01207       -60.067 7        43.594    38847368.683 6 322912038.22806      -126.732 6        39.531  
> 2025 01 25  0 18  0.0000000  0  8      -264.270333783429
I01         0.000 8         0.00008        -0.034 8        50.938           0.000 4         0.00004        -0.072 4        25.312  
I02  38966046.425 7 152907735.93607      -377.694 7        44.688    38966038.795 6 323898418.34906      -800.566 6        40.000  
I03         0.000 8         0.00008        -0.034 8        50.469           0.000 7         0.00007        -0.072 7        45.156  
I05         0.000 8         0.00008        -0.034 8        48.438           0.000 6         0.00006        -0.072 6        41.875  
I06  38470757.003 7 150964162.67007       -55.569 7        45.156    38470749.629 6 319781351.80106      -117.577 6        39.219  
I07         0.000 7         0.00007        -0.034 7        45.000           0.000 6         0.00006        -0.072 6        39.531  
I09  36174459.047 8 141953351.43808       -92.257 8        50.312    36174453.465 7 300693365.12007      -195.354 7        45.156  
I10  38846917.738 7 152440477.00907       -59.968 7        43.750    38846911.610 6 322908240.24706      -126.544 6        39.375  
> 2025 01 25  0 18 30.0000000  0  8      -264.282180927096
I01         0.000 8         0.00008        -0.037 8        50.938           0.000 4         0.00004        -0.079 4        25.312  
I02  38963153.321 7 152896383.21907      -379.124 7        44.688    38963145.990 6 323874370.35706      -802.930 6        39.844  
I03         0.000 8         0.00008        -0.037 8        50.469           0.000 7         0.00007        -0.079 7        45.156  
I05         0.000 8         0.00008        -0.037 8        48.438           0.000 7         0.00007        -0.079 7        42.344  
I06  38470333.007 7 150962496.54607       -55.704 7        45.625    38470324.717 6 319777822.52606      -117.569 6        39.219  
I07         0.000 7         0.00007        -0.037 7        45.000           0.000 6         0.00006        -0.079 6        39.375  
I09  36173755.427 8 141950590.54508       -91.869 8        50.156    36173749.940 7 300687516.84207      -194.513 7        45.156  
I10  38846460.626 7 152438684.66207       -59.862 7        43.594    38846455.306 6 322904443.63706      -126.411 6        39.219  
> 2025 01 25  0 19  0.0000000  0  8      -264.565624626511
I01         0.000 8         0.00008        -0.039 8        51.094           0.000 3         0.00003        -0.083 3        21.875  
I02  38960251.133 7 152884993.42207      -380.270 7        44.531    38960243.421 6 323850243.81306      -805.531 6        39.375  
I03         0.000 8         0.00008        -0.039 8        50.312           0.000 7         0.00007        -0.083 7        44.688  
I05         0.000 8         0.00008        -0.039 8        48.594           0.000 6         0.00006        -0.083 6        41.406  
I06  38469908.537 7 150960831.46207       -55.540 7        45.625    38469900.726 6 319774295.43806      -117.285 6        38.594  
I07         0.000 7         0.00007        -0.039 7        45.000           0.000 6         0.00006        -0.083 6        38.750  
I09  36173054.400 8 141947839.90908       -91.594 8        50.156    36173048.963 7 300681690.28707      -194.044 7        44.531  
I10  38846004.327 7 152436892.99807       -59.825 7        43.750    38845998.160 6 322900648.46406      -126.708 6        37.969  
> 2025 01 25  0 19 30.0000000  0  8      -264.361858335761
I01         0.000 8         0.00008        -0.053 8        51.094           0.000 4         0.00004        -0.111 4        24.531  
I02  38957339.061 7 152873567.45207      -381.532 7        44.375    38957332.154 6 323826040.62606      -808.298 6        40.156  
I03         0.000 8         0.00008        -0.053 8        50.312           0.000 7         0.00007        -0.111 7        45.156  
I05         0.000 8         0.00008        -0.053 8        48.750           0.000 6         0.00006        -0.111 6        41.719  
I06  38469484.191 7 150959167.43207       -55.561 7        45.312    38469476.489 6 319770770.59906      -117.554 6        40.000  
I07         0.000 7         0.00007        -0.053 7        45.156           0.000 6         0.00006        -0.111 6        39.375  
I09  36172356.188 8 141945099.57208       -91.161 8        50.312    36172350.722 7 300675885.54607      -193.284 7        44.844  
I10  38845548.336 7 152435102.00407       -59.774 7        43.906    38845541.974 6 322896854.73506      -126.669 6        38.750  
> 2025 01 25  0 20  0.0000000  0  8      -263.371053944419
I01         0.000 8         0.00008         0.012 8        51.562           0.000 3         0.00003         0.026 3        21.719  
I02  38954418.167 7 152862104.45607      -382.586 7        44.688    38954410.971 6 323801759.05606      -810.822 6        40.156  
I03         0.000 8         0.00008         0.012 8        50.312           0.000 7         0.00007         0.026 7        45.000  
I05         0.000 8         0.00008         0.012 8        48.594           0.000 6         0.00006         0.026 6        41.719  
I06  38469060.887 7 150957504.44107       -55.302 7        45.469    38469053.172 6 319767247.92306      -117.620 6        39.531  
I07         0.000 7         0.00007         0.012 7        45.156           0.000 6         0.00006         0.026 6        39.375  
I09  36171660.591 8 141942369.70808       -90.856 8        50.312    36171655.315 7 300670102.97407      -192.379 7        45.156  
I10  38845092.220 7 152433311.71107       -59.383 7        43.906    38845085.793 6 322893062.47306      -126.016 6        38.594  
> 2025 01 25  0 20 30.0000000  0  8      -263.510755040461
I01         0.000 8         0.00008        -0.003 8        51.875           0.000 4         0.00004        -0.005 4        25.781  
I02  38951488.013 7 152850605.03207      -383.873 7        44.844    38951480.925 6 323777400.28806      -812.910 6        40.938  
I03         0.000 8         0.00008        -0.003 8        50.469           0.000 7         0.00007        -0.005 7        45.312  
I05         0.000 8         0.00008        -0.003 8        48.750           0.000 6         0.00006        -0.005 6        41.562  
I06  38468637.629 7 150955842.53907       -55.272 7        45.625    38468629.732 6 319763727.57606      -117.140 6        39.688  
I07         0.000 7         0.00007        -0.003 7        45.156           0.000 6         0.00006        -0.005 6        39.219  
I09  36170967.703 8 141939650.35208       -90.416 8        50.312    36170962.607 7 300664342.65607      -191.680 7        45.625  
I10  38844635.648 7 152431522.12807       -59.942 7        43.438    38844629.342 6 322889271.69206      -126.095 6        38.750  
> 2025 01 25  0 21  0.0000000  0  8      -263.826784672632
I01         0.000 8         0.00008        -0.021 8        51.719           0.000 4         0.00004        -0.043 4        25.781  
I02  38948548.570 7 152839069.71907      -385.186 7        44.688    38948540.794 6 323752965.48906      -815.880 6        40.312  
I03         0.000 8         0.00008        -0.021 8        50.312           0.000 7         0.00007        -0.043 7        45.156  
I05         0.000 8         0.00008        -0.021 8        49.062           0.000 6         0.00006        -0.043 6        41.719  
I06  38468213.867 7 150954181.67807       -55.229 7        45.469    38468206.494 6 319760209.43406      -117.101 6        39.844  
I07         0.000 7         0.00007        -0.021 7        45.156           0.000 6         0.00006        -0.043 6        39.062  
I09  36170277.275 8 141936941.60608       -90.218 8        50.469    36170272.009 7 300658604.82307      -190.942 7        45.312  
I10  38844180.404 7 152429733.24407       -59.600 7        43.750    38844173.738 6 322885482.42906      -126.335 6        38.594  
> 2025 01 25  0 21 30.0000000  0  8      -263.684776534991
I01         0.000 8         0.00008        -0.008 8        51.719           0.000 4         0.00004        -0.017 4        25.312  
I02  38945599.699 7 152827498.08607      -386.108 7        44.688    38945592.246 6 323728453.77806      -818.393 6        40.625  
I03         0.000 8         0.00008        -0.008 8        50.469           0.000 7         0.00007        -0.017 7        45.312  
I05         0.000 8         0.00008        -0.008 8        49.219           0.000 6         0.00006        -0.017 6        41.406  
I06  38467791.317 7 150952521.87207       -55.521 7        45.625    38467783.597 6 319756693.52706      -117.131 6        39.531  
I07         0.000 7         0.00007        -0.008 7        45.312           0.000 6         0.00006        -0.017 6        38.906  
I09  36169589.685 8 141934243.55208       -89.633 8        50.312    36169584.775 7 300652889.64007      -190.188 7        45.625  
I10  38843724.619 7 152427945.07207       -59.465 7        43.594    38843717.894 6 322881694.68106      -126.413 6        38.750  
> 2025 01 25  0 22  0.0000000  0  8      -263.372151540966
I01         0.000 8         0.00008        -0.061 8        51.719           0.000 4         0.00004        -0.129 4        26.250  
I02  38942641.981 7 152815890.63507      -387.537 7        44.688    38942634.207 6 323703866.17806      -821.150 6        39.844  
I03         0.000 8         0.00008        -0.061 8        50.312           0.000 7         0.00007        -0.129 7        44.688  
I05         0.000 8         0.00008        -0.061 8        49.219           0.000 6         0.00006        -0.129 6        41.406  
I06  38467368.783 7 150950863.16707       -55.294 7        45.625    38467360.717 6 319753179.94506      -117.208 6        38.906  
I07         0.000 7         0.00007        -0.061 7        45.312           0.000 6         0.00006        -0.129 6        38.438  
I09  36168904.991 8 141931556.25108       -89.511 8        50.312    36168900.109 7 300647197.24207      -189.506 7        45.156  
I10  38843269.274 7 152426157.65307       -59.616 7        43.594    38843262.630 6 322877908.50106      -126.742 6        37.812  
> 2025 01 25  0 22 30.0000000  0  8      -263.626623706763
I01         0.000 8         0.00008        -0.049 8        51.562           0.000 4         0.00004        -0.105 4        26.250  
I02  38939674.756 7 152804246.79307      -388.817 7        44.688    38939667.091 6 323679201.49006      -823.557 6        40.312  
I03         0.000 8         0.00008        -0.049 8        50.469           0.000 7         0.00007        -0.105 7        45.312  
I05         0.000 8         0.00008        -0.049 8        49.062           0.000 6         0.00006        -0.105 6        41.875  
I06  38466945.774 7 150949205.53007       -55.221 7        45.469    38466938.275 6 319749668.62806      -117.258 6        39.219  
I07         0.000 7         0.00007        -0.049 7        45.469           0.000 6         0.00006        -0.105 6        38.594  
I09  36168223.059 8 141928879.81608       -89.060 8        50.469    36168217.938 7 300641527.83807      -188.767 7        45.469  
I10  38842814.055 7 152424370.97007       -59.582 7        44.062    38842807.162 6 322874123.88906      -126.370 6        38.594  
> 2025 01 25  0 23  0.0000000  0  8      -263.179805136573
I01         0.000 8         0.00008        -0.074 8        51.719           0.000 4         0.00004        -0.157 4        25.156  
I02  38936698.417 7 152792567.15807      -390.047 7        44.688    38936691.016 6 323654460.98906      -826.498 6        39.844  
I03         0.000 8         0.00008        -0.074 8        50.469           0.000 7         0.00007        -0.157 7        45.156  
I05         0.000 8         0.00008        -0.074 8        48.906           0.000 6         0.00006        -0.157 6        41.875  
I06  38466524.028 7 150947548.97707       -55.359 7        45.469    38466516.408 6 319746159.62806      -117.106 6        39.688  
I07         0.000 7         0.00007        -0.074 7        45.156           0.000 6         0.00006        -0.157 6        38.750  
I09  36167543.754 8 141926214.34608       -88.855 8        50.312    36167538.856 7 300635881.68307      -187.965 7        45.781  
I10  38842359.237 7 152422585.03207       -59.370 7        43.750    38842351.689 6 322870340.86106      -126.446 6        38.594  
> 2025 01 25  0 23 30.0000000  0  8      -263.447701098636
I01         0.000 8         0.00008        -0.058 8        51.719           0.000 3         0.00003        -0.123 3        22.500  
I02  38933713.122 7 152780851.86007      -391.136 7        44.531    38933705.654 6 323629644.92406      -828.528 6        39.219  
I03         0.000 8         0.00008        -0.058 8        50.469           0.000 7         0.00007        -0.123 7        44.531  
I05         0.000 8         0.00008        -0.058 8        48.750           0.000 6         0.00006        -0.123 6        40.938  
I06  38466101.965 7 150945893.54407       -55.275 7        45.312    38466094.165 6 319742652.99106      -117.084 6        39.062  
I07         0.000 7         0.00007        -0.058 7        45.312           0.000 6         0.00006        -0.123 6        38.281  
I09  36166867.489 8 141923559.91608       -88.364 8        50.469    36166862.309 7 300630258.92407      -187.068 7        45.000  
I10  38841903.986 7 152420799.87007       -59.743 7        44.062    38841897.100 6 322866559.46806      -126.106 6        38.125  
> 2025 01 25  0 24  0.0000000  0  8      -263.089008742731
I01         0.000 8         0.00008        -0.018 8        51.562           0.000 4         0.00004        -0.037 4        25.781  
I02  38930718.768 7 152769101.43307      -392.299 7        44.688    38930711.171 6 323604754.47806      -830.918 6        38.906  
I03         0.000 8         0.00008        -0.018 8        50.312           0.000 7         0.00007        -0.037 7        44.531  
I05         0.000 8         0.00008        -0.018 8        48.906           0.000 6         0.00006        -0.037 6        41.562  
I06  38465680.610 7 150944239.21807       -55.058 7        45.469    38465672.936 6 319739148.68006      -116.905 6        39.219  
I07         0.000 7         0.00007        -0.018 7        45.312           0.000 6         0.00006        -0.037 6        38.125  
I09  36166193.941 8 141920916.59008       -87.942 8        50.469    36166188.683 7 300624659.67907      -186.305 7        45.156  
I10  38841449.494 7 152419015.45707       -59.448 7        44.062    38841442.085 6 322862779.69106      -125.970 6        37.969  
> 2025 01 25  0 24 30.0000000  0  8      -263.077594606612
I01         0.000 8         0.00008         0.002 8        51.406           0.000 3         0.00003         0.003 3        22.500  
I02  38927715.325 7 152757315.05807      -393.345 7        44.219    38927707.666 6 323579787.86806      -833.380 6        39.688  
I03         0.000 8         0.00008         0.002 8        50.469           0.000 7         0.00007         0.003 7        45.156  
I05         0.000 8         0.00008         0.002 8        48.750           0.000 6         0.00006         0.003 6        41.562  
I06  38465259.252 7 150942585.97007       -54.930 7        45.469    38465251.975 6 319735646.68206      -116.723 6        40.000  
I07         0.000 7         0.00007         0.002 7        45.312           0.000 6         0.00006         0.003 6        38.438  
I09  36165522.951 8 141918284.47108       -87.627 8        50.469    36165517.969 7 300619084.15407      -185.489 7        45.625  
I10  38840995.043 7 152417231.83407       -59.362 7        44.062    38840987.758 6 322859001.57006      -125.891 6        38.281  
> 2025 01 25  0 25  0.0000000  0  8      -262.930663218043
I01         0.000 8         0.00008        -0.046 8        51.719           0.000 3         0.00003        -0.097 3        22.812  
I02  38924702.487 7 152745493.49107      -394.767 7        44.219    38924695.374 6 323554746.73006      -836.301 6        39.688  
I03         0.000 8         0.00008        -0.046 8        50.469           0.000 7         0.00007        -0.097 7        45.000  
I05         0.000 8         0.00008        -0.046 8        48.906           0.000 6         0.00006        -0.097 6        41.719  
I06  38464838.085 7 150940933.86307       -55.042 7        45.312    38464830.998 6 319732147.08606      -116.752 6        40.000  
I07         0.000 7         0.00007        -0.046 7        45.312           0.000 6         0.00006        -0.097 6        38.750  
I09  36164855.272 8 141915663.66508       -87.262 8        50.625    36164850.069 7 300613532.61007      -184.719 7        45.469  
I10  38840540.990 7 152415449.01807       -59.409 7        44.062    38840533.750 6 322855225.15506      -125.829 6        38.438  
> 2025 01 25  0 25 30.0000000  0  8      -262.817357129459
I01         0.000 8         0.00008        -0.133 8        51.562           0.000 3         0.00003        -0.282 3        20.156  
I02  38921681.326 7 152733636.83707      -395.874 7        44.375    38921674.113 6 323529631.25306      -839.402 6        39.062  
I03         0.000 8         0.00008        -0.133 8        50.469           0.000 7         0.00007        -0.282 7        45.312  
I05         0.000 8         0.00008        -0.133 8        48.750           0.000 6         0.00006        -0.282 6        41.250  
I06  38464417.616 7 150939282.86407       -55.199 7        45.312    38464409.879 6 319728649.83706      -116.847 6        39.844  
I07         0.000 7         0.00007        -0.133 7        45.156           0.000 6         0.00006        -0.282 6        38.125  
I09  36164190.412 8 141913054.25408       -87.018 8        50.781    36164185.150 7 300608005.20607      -184.200 7        45.469  
I10  38840086.838 7 152413666.99107       -59.700 7        44.062    38840079.612 6 322851450.39506      -126.396 6        38.281  
> 2025 01 25  0 26  0.0000000  0  8      -263.355292093788
