     3.03           OBSERVATION DATA     I:IRNSS            RINEX VERSION / TYPE
OBS GEN             NPLI                24-JAN-25 00:00     PGM / RUN BY / DATE 
REF                                                         MARKER NAME         
0                                                           MARKER NUMBER       
Human                                                       MARKER TYPE         
NPLI                NPLI                                    OBSERVER / AGENCY   
01                  NGS-C60 CV42        1.0                 REC # / TYPE / VERS 
18730               L5S1                                    ANT # / TYPE        
  1243911.1339   5462557.3081   3038748.0760                APPROX POSITION XYZ 
        0.0000         0.0000         0.0000                ANTENNA: DELTA H/E/N
I    8 C5C L5C D5C S5C C9C L9C D9C S9C                      SYS / # / OBS TYPES 
DBHZ                                                        SIGNAL STRENGTH UNIT
SNR is mapped to RINEX snr flag value [1-9]                 COMMENT             
< 12dBHz -> 1; 12-17dBHz -> 2; 18-23dBHz -> 3               COMMENT             
24-29dBHz -> 4; 30-35dBHz -> 5; 36-41dBHz -> 6              COMMENT             
42-47dBHz -> 7; 48-53dBHz -> 8; >= 54dBHz -> 9              COMMENT             
                                                            COMMENT             
    30.000                                                  INTERVAL            
  2025     1    24     0     0    0.0000000     IRN         TIME OF FIRST OBS   
  2025     1    24    23    59   30.0000000     IRN         TIME OF LAST OBS    
                                                            SYS / PHASE SHIFT   
                                                            SYS / PHASE SHIFT   
                                                            END OF HEADER       
> 2025 01 24  0  0  0.0000000  0  8      -263.974058233001
I01         0.000 8         0.00008        -0.121 8        50.312           0.000 3         0.00003        -0.257 3        22.969  
I02  39084478.468 7 153372506.64707      -319.763 7        42.656    39084470.807 6 324882864.75406      -677.222 6        36.406  
I03         0.000 8         0.00008        -0.121 8        49.688           0.000 7         0.00007        -0.257 7        45.781  
I05         0.000 7         0.00007        -0.121 7        46.406           0.000 7         0.00007        -0.257 7        42.188  
I06  38488583.967 7 151034158.48607       -57.290 7        44.062    38488577.265 6 319929536.76706      -121.009 6        39.375  
I07         0.000 7         0.00007        -0.121 7        43.594           0.000 6         0.00006        -0.257 6        40.781  
I09  36208383.599 8 142086400.85508      -104.736 8        50.000    36208378.342 7 300975418.78807      -221.843 7        45.312  
I10  38868028.763 7 152523180.20807       -60.741 7        43.281    38868022.320 6 323083650.66106      -127.801 6        39.062  
> 2025 01 24  0  0 30.0000000  0  8      -261.952653131857
I01         0.000 8         0.00008        -0.037 8        50.312           0.000 4         0.00004        -0.079 4        24.219  
I02  39082030.742 7 153362901.50207      -321.018 7        42.656    39082023.335 6 324862518.52806      -679.683 6        36.250  
I03         0.000 8         0.00008        -0.037 8        49.688           0.000 7         0.00007        -0.079 7        45.938  
I05         0.000 7         0.00007        -0.037 7        46.406           0.000 7         0.00007        -0.079 7        42.344  
I06  38488148.044 7 151032448.27407       -56.705 7        44.062    38488141.515 6 319925914.07706      -121.005 6        39.375  
I07         0.000 7         0.00007        -0.037 7        43.750           0.000 6         0.00006        -0.079 6        40.625  
I09  36207584.926 8 142083266.70008      -104.420 8        50.156    36207579.661 7 300968779.81707      -221.092 7        45.625  
I10  38867567.534 7 152521370.65907       -60.526 7        43.125    38867560.891 6 323079817.57706      -127.866 6        38.906  
> 2025 01 24  0  1  0.0000000  0  8      -262.372415619106
I01         0.000 8         0.00008        -0.034 8        50.312           0.000 3         0.00003        -0.072 3        21.875  
I02  39079572.322 7 153353254.51007      -322.305 7        42.656    39079564.625 6 324842083.67306      -682.760 6        36.250  
I03         0.000 8         0.00008        -0.034 8        49.688           0.000 7         0.00007        -0.072 7        45.781  
I05         0.000 7         0.00007        -0.034 7        46.562           0.000 7         0.00007        -0.072 7        42.500  
I06  38487712.775 7 151030738.83007       -57.111 7        43.906    38487705.824 6 319922293.01806      -120.761 6        39.375  
I07         0.000 7         0.00007        -0.034 7        43.750           0.000 6         0.00006        -0.072 6        40.781  
I09  36206788.010 8 142080139.30208      -104.099 8        50.156    36206782.748 7 300962155.16607      -220.696 7        45.625  
I10  38867106.504 7 152519561.35307       -60.277 7        43.125    38867099.632 6 323075985.04106      -127.849 6        38.906  
> 2025 01 24  0  1 30.0000000  0  8      -261.885608217075
I01         0.000 8         0.00008        -0.013 8        50.469           0.000 4         0.00004        -0.028 4        24.844  
I02  39077103.311 7 153343564.74807      -323.605 7        42.656    39077096.034 6 324821558.19806      -685.735 6        36.406  
I03         0.000 8         0.00008        -0.013 8        49.688           0.000 7         0.00007        -0.028 7        45.938  
I05         0.000 7         0.00007        -0.013 7        46.875           0.000 7         0.00007        -0.028 7        42.656  
I06  38487277.134 7 151029030.10707       -56.899 7        44.062    38487270.306 6 319918673.49306      -120.719 6        39.375  
I07         0.000 7         0.00007        -0.013 7        43.750           0.000 6         0.00006        -0.028 6        40.625  
I09  36205992.843 8 142077018.76808      -103.789 8        50.156    36205987.740 7 300955545.04407      -220.096 7        45.625  
I10  38866645.450 7 152517752.28407       -60.403 7        43.125    38866638.704 6 323072152.97606      -127.755 6        38.906  
> 2025 01 24  0  2  0.0000000  0  8      -262.139748313598
I01         0.000 8         0.00008        -0.028 8        50.469           0.000 4         0.00004        -0.060 4        25.625  
I02  39074622.910 7 153333832.28407      -324.988 7        42.500    39074615.479 6 324800942.29306      -688.606 6        36.562  
I03         0.000 8         0.00008        -0.028 8        49.688           0.000 7         0.00007        -0.060 7        45.781  
I05         0.000 7         0.00007        -0.028 7        46.875           0.000 7         0.00007        -0.060 7        42.344  
I06  38486842.057 7 151027322.12507       -56.937 7        44.062    38486835.230 6 319915055.53606      -120.581 6        39.531  
I07         0.000 7         0.00007        -0.028 7        43.750           0.000 6         0.00006        -0.060 6        40.781  
I09  36205199.475 8 142073905.14408      -103.803 8        50.156    36205194.118 7 300948949.56607      -219.750 7        45.625  
I10  38866184.454 7 152515943.47107       -60.285 7        42.969    38866177.679 6 323068321.47006      -127.923 6        38.906  
> 2025 01 24  0  2 30.0000000  0  8      -262.397671181578
I01         0.000 8         0.00008        -0.048 8        50.312           0.000 4         0.00004        -0.102 4        25.000  
I02  39072131.977 7 153324057.92407      -326.591 7        42.500    39072124.712 6 324780237.64106      -691.714 6        36.562  
I03         0.000 8         0.00008        -0.048 8        49.688           0.000 7         0.00007        -0.102 7        45.781  
I05         0.000 7         0.00007        -0.048 7        46.719           0.000 7         0.00007        -0.102 7        42.344  
I06  38486407.046 7 151025614.90007       -57.123 7        44.062    38486400.180 6 319911439.18406      -120.455 6        39.688  
I07         0.000 7         0.00007        -0.048 7        43.750           0.000 6         0.00006        -0.102 6        40.625  
I09  36204407.716 8 142070798.48808      -103.461 8        50.156    36204402.368 7 300942368.84207      -219.182 7        45.625  
I10  38865723.326 7 152514134.91107       -60.283 7        42.969    38865716.878 6 323064490.50606      -127.922 6        38.906  
> 2025 01 24  0  3  0.0000000  0  8      -262.365173425357
I01         0.000 8         0.00008        -0.026 8        50.312           0.000 4         0.00004        -0.056 4        24.531  
I02  39069630.789 7 153314241.45907      -327.686 7        42.344    39069622.773 6 324759443.77806      -694.308 6        36.719  
I03         0.000 8         0.00008        -0.026 8        49.531           0.000 7         0.00007        -0.056 7        45.781  
I05         0.000 7         0.00007        -0.026 7        46.875           0.000 6         0.00006        -0.056 6        41.875  
I06  38485972.245 7 151023908.46907       -56.974 7        44.062    38485965.410 6 319907824.50606      -120.790 6        39.531  
I07         0.000 7         0.00007        -0.026 7        43.906           0.000 6         0.00006        -0.056 6        40.781  
I09  36203617.936 8 142067698.94208      -103.282 8        50.156    36203612.557 7 300935803.18107      -218.748 7        45.625  
I10  38865262.700 7 152512326.62707       -60.231 7        42.812    38865255.966 6 323060660.12806      -127.958 6        38.750  
> 2025 01 24  0  3 30.0000000  0  8      -261.745109422248
I01         0.000 8         0.00008        -0.058 8        50.312           0.000 4         0.00004        -0.123 4        25.156  
I02  39067118.889 7 153304383.64407      -329.604 7        42.500    39067111.559 6 324738562.34606      -697.858 6        37.031  
I03         0.000 8         0.00008        -0.058 8        49.531           0.000 7         0.00007        -0.123 7        45.781  
I05         0.000 7         0.00007        -0.058 7        47.031           0.000 7         0.00007        -0.123 7        42.188  
I06  38485537.425 7 151022202.76107       -56.724 7        44.219    38485530.624 6 319904211.38106      -120.447 6        39.531  
I07         0.000 7         0.00007        -0.058 7        43.906           0.000 6         0.00006        -0.123 6        40.625  
I09  36202829.797 8 142064606.49408      -102.909 8        50.156    36202824.462 7 300929252.55607      -218.249 7        45.469  
I10  38864802.058 7 152510518.63207       -60.409 7        42.969    38864795.593 6 323056830.35306      -127.945 6        38.906  
> 2025 01 24  0  4  0.0000000  0  8      -262.024910611287
I01         0.000 8         0.00008        -0.040 8        50.312           0.000 3         0.00003        -0.084 3        23.750  
I02  39064595.902 7 153294483.84007      -330.584 7        42.500    39064588.695 6 324717591.97106      -700.986 6        37.188  
I03         0.000 8         0.00008        -0.040 8        49.688           0.000 7         0.00007        -0.084 7        45.781  
I05         0.000 7         0.00007        -0.040 7        47.031           0.000 7         0.00007        -0.084 7        42.344  
I06  38485102.821 7 151020497.83907       -56.742 7        44.219    38485096.124 6 319900599.88406      -120.743 6        39.531  
I07         0.000 7         0.00007        -0.040 7        44.062           0.000 6         0.00006        -0.084 6        40.781  
I09  36202043.637 8 142061521.30008      -102.725 8        50.156    36202038.012 7 300922717.30707      -217.674 7        45.312  
I10  38864341.314 7 152508710.92707       -60.277 7        42.656    38864335.005 6 323053001.20306      -127.754 6        38.906  
> 2025 01 24  0  4 30.0000000  0  8      -261.825038549072
I01         0.000 8         0.00008        -0.078 8        50.312           0.000 4         0.00004        -0.165 4        24.844  
I02  39062062.682 7 153284542.36907      -332.082 7        42.656    39062055.282 6 324696533.33806      -703.596 6        37.188  
I03         0.000 8         0.00008        -0.078 8        49.688           0.000 7         0.00007        -0.165 7        45.781  
I05         0.000 7         0.00007        -0.078 7        47.188           0.000 7         0.00007        -0.165 7        42.344  
I06  38484668.697 7 151018793.68707       -57.020 7        44.375    38484661.942 6 319896990.04906      -120.442 6        39.688  
I07         0.000 7         0.00007        -0.078 7        44.062           0.000 6         0.00006        -0.165 6        40.625  
I09  36201259.252 8 142058443.37908      -102.680 8        50.156    36201253.711 7 300916197.45407      -217.289 7        45.469  
I10  38863880.898 7 152506903.53307       -60.482 7        42.812    38863874.390 6 323049172.71106      -127.702 6        38.906  
> 2025 01 24  0  5  0.0000000  0  8      -262.070704170489
I01         0.000 8         0.00008        -0.051 8        50.312           0.000 4         0.00004        -0.108 4        24.844  
I02  39059518.820 7 153274559.41807      -333.734 7        42.656    39059511.571 6 324675386.82606      -706.319 6        37.656  
I03         0.000 8         0.00008        -0.051 8        49.688           0.000 7         0.00007        -0.108 7        45.781  
I05         0.000 7         0.00007        -0.051 7        47.031           0.000 7         0.00007        -0.108 7        42.344  
I06  38484234.568 7 151017090.33807       -56.663 7        44.375    38484227.771 6 319893381.90806      -120.606 6        39.688  
I07         0.000 7         0.00007        -0.051 7        44.062           0.000 6         0.00006        -0.108 6        40.625  
I09  36200476.757 8 142055372.85608      -102.285 8        50.000    36200471.227 7 300909693.27007      -216.651 7        45.469  
I10  38863420.264 7 152505096.44207       -60.265 7        42.656    38863413.604 6 323045344.86306      -127.756 6        38.750  
> 2025 01 24  0  5 30.0000000  0  8      -261.524570236124
I01         0.000 8         0.00008        -0.068 8        50.469           0.000 3         0.00003        -0.145 3        20.938  
I02  39056964.756 7 153264534.93107      -334.879 7        42.812    39056957.405 6 324654152.35506      -709.741 6        37.969  
I03         0.000 8         0.00008        -0.068 8        49.688           0.000 7         0.00007        -0.145 7        45.781  
I05         0.000 7         0.00007        -0.068 7        46.875           0.000 6         0.00006        -0.145 6        41.875  
I06  38483801.022 7 151015387.78307       -56.832 7        44.375    38483794.000 6 319889775.44706      -120.537 6        39.688  
I07         0.000 7         0.00007        -0.068 7        44.219           0.000 6         0.00006        -0.145 6        40.625  
I09  36199696.271 8 142052309.74808      -101.994 8        50.156    36199690.495 7 300903204.80507      -216.281 7        45.469  
I10  38862959.949 7 152503289.66807       -60.363 7        42.656    38862953.364 6 323041517.69006      -127.607 6        38.906  
> 2025 01 24  0  6  0.0000000  0  8      -263.936667592454
I01         0.000 8         0.00008        -0.044 8        50.312           0.000 4         0.00004        -0.093 4        25.312  
I02  39054398.934 7 153254469.13407      -336.375 7        42.812    39054391.308 6 324632830.36806      -712.236 6        37.969  
I03         0.000 8         0.00008        -0.044 8        49.531           0.000 7         0.00007        -0.093 7        45.781  
I05         0.000 7         0.00007        -0.044 7        47.031           0.000 6         0.00006        -0.093 6        41.875  
I06  38483366.689 7 151013686.03107       -56.796 7        44.375    38483359.916 6 319886170.68606      -120.115 6        39.531  
I07         0.000 7         0.00007        -0.044 7        44.219           0.000 6         0.00006        -0.093 6        40.625  
I09  36198916.927 8 142049254.15908      -101.742 8        50.000    36198911.163 7 300896732.26007      -215.573 7        45.312  
I10  38862498.771 7 152501483.22607       -60.222 7        42.656    38862492.242 6 323037691.23606      -127.754 6        38.750  
> 2025 01 24  0  6 30.0000000  0  8      -261.502474219927
I01         0.000 8         0.00008        -0.090 8        50.312           0.000 3         0.00003        -0.191 3        23.906  
I02  39051824.026 7 153244362.02807      -337.644 7        42.969    39051816.821 6 324611420.85906      -715.688 6        38.125  
I03         0.000 8         0.00008        -0.090 8        49.531           0.000 7         0.00007        -0.191 7        45.781  
I05         0.000 7         0.00007        -0.090 7        47.031           0.000 7         0.00007        -0.191 7        42.031  
I06  38482934.011 7 151011985.08307       -56.947 7        44.375    38482927.217 6 319882567.63806      -120.183 6        39.531  
I07         0.000 7         0.00007        -0.090 7        44.375           0.000 6         0.00006        -0.191 6        40.469  
I09  36198140.880 8 142046206.15808      -101.478 8        50.156    36198135.197 7 300890275.79707      -214.984 7        45.312  
I10  38862039.363 7 152499677.13607       -60.393 7        42.656    38862032.613 6 323033865.50006      -128.140 6        38.750  
> 2025 01 24  0  7  0.0000000  0  8      -261.487767440175
I01         0.000 8         0.00008        -0.054 8        50.312           0.000 3         0.00003        -0.115 3        23.750  
I02  39049238.011 7 153234214.23207      -339.128 7        43.125    39049230.769 6 324589925.18306      -717.707 6        37.656  
I03         0.000 8         0.00008        -0.054 8        49.531           0.000 7         0.00007        -0.115 7        45.000  
I05         0.000 7         0.00007        -0.054 7        47.031           0.000 7         0.00007        -0.115 7        42.031  
I06  38482500.641 7 151010284.96507       -56.734 7        44.375    38482494.017 6 319878966.33706      -120.334 6        39.219  
I07         0.000 7         0.00007        -0.054 7        44.375           0.000 6         0.00006        -0.115 6        39.844  
I09  36197366.053 8 142043165.83908      -101.299 8        50.156    36197360.414 7 300883835.62107      -214.471 7        44.688  
I10  38861579.009 7 152497871.38507       -60.285 7        42.500    38861572.598 6 323030040.49106      -127.715 6        37.812  
> 2025 01 24  0  7 30.0000000  0  8      -261.043538226229
I01         0.000 8         0.00008         0.018 8        50.312           0.000 3         0.00003         0.038 3        23.906  
I02  39046641.589 7 153224025.51407      -340.123 7        42.969    39046634.488 6 324568342.79006      -720.800 6        38.438  
I03         0.000 8         0.00008         0.018 8        49.531           0.000 7         0.00007         0.038 7        45.781  
I05         0.000 7         0.00007         0.018 7        47.344           0.000 7         0.00007         0.038 7        42.188  
I06  38482067.558 7 151008585.65407       -56.645 7        44.375    38482061.201 6 319875366.74606      -119.787 6        40.000  
I07         0.000 7         0.00007         0.018 7        44.219           0.000 6         0.00006         0.038 6        40.469  
I09  36196593.282 8 142040133.27808      -100.833 8        50.156    36196587.616 7 300877411.85707      -213.760 7        45.312  
I10  38861118.983 7 152496066.00007       -60.045 7        42.500    38861112.671 6 323026216.25706      -127.511 6        38.594  
> 2025 01 24  0  8  0.0000000  0  8      -261.302536121615
I01         0.000 8         0.00008         0.010 8        50.312           0.000 4         0.00004         0.020 4        25.156  
I02  39044034.783 7 153213796.20507      -341.318 7        42.969    39044027.733 6 324546674.45106      -723.469 6        38.438  
I03         0.000 8         0.00008         0.010 8        49.531           0.000 7         0.00007         0.020 7        45.781  
I05         0.000 7         0.00007         0.010 7        47.500           0.000 7         0.00007         0.020 7        42.188  
I06  38481634.982 7 151006887.19807       -56.431 7        44.375    38481628.234 6 319871768.96506      -119.858 6        40.000  
I07         0.000 7         0.00007         0.010 7        44.375           0.000 6         0.00006         0.020 6        40.312  
I09  36195822.522 8 142037108.55208      -100.819 8        50.156    36195816.661 7 300871004.69007      -213.248 7        45.469  
I10  38860659.054 7 152494260.98407       -60.345 7        42.500    38860652.469 6 323022392.82706      -127.344 6        38.594  
> 2025 01 24  0  8 30.0000000  0  8      -265.621202197066
I01         0.000 8         0.00008        -0.050 8        50.156           0.000 4         0.00004        -0.105 4        24.531  
I02  39041416.413 7 153203526.06307      -343.098 7        42.969    39041409.007 6 324524919.60706      -726.673 6        38.281  
I03         0.000 8         0.00008        -0.050 8        49.531           0.000 7         0.00007        -0.105 7        45.781  
I05         0.000 7         0.00007        -0.050 7        47.344           0.000 7         0.00007        -0.105 7        42.188  
I06  38481201.004 7 151005189.56507       -56.841 7        44.375    38481194.476 6 319868172.93406      -119.817 6        39.844  
I07         0.000 7         0.00007        -0.050 7        44.375           0.000 6         0.00006        -0.105 6        40.312  
I09  36195052.248 8 142034091.71208      -100.506 8        50.156    36195046.568 7 300864614.24307      -212.782 7        45.156  
I10  38860197.750 7 152492456.34707       -60.187 7        42.500    38860191.409 6 323018570.18706      -127.459 6        38.750  
> 2025 01 24  0  9  0.0000000  0  8      -262.012699142957
I01         0.000 8         0.00008        -0.008 8        50.156           0.000 4         0.00004        -0.017 4        24.219  
I02  39038789.906 7 153193214.93107      -344.444 7        42.969    39038782.671 6 324503077.92506      -729.605 6        38.594  
I03         0.000 8         0.00008        -0.008 8        49.531           0.000 7         0.00007        -0.017 7        45.781  
I05         0.000 7         0.00007        -0.008 7        47.188           0.000 7         0.00007        -0.017 7        42.188  
I06  38480769.615 7 151003492.76707       -56.444 7        44.375    38480763.146 6 319864578.67906      -119.547 6        40.156  
I07         0.000 7         0.00007        -0.008 7        44.375           0.000 6         0.00006        -0.017 6        40.312  
I09  36194286.476 8 142031082.84108      -100.212 8        50.156    36194280.954 7 300858240.66907      -212.181 7        45.312  
I10  38859739.558 7 152490652.08907       -60.003 7        42.344    38859732.676 6 323014748.35606      -127.404 6        38.906  
> 2025 01 24  0  9 30.0000000  0  8      -260.831220846447
I01         0.000 8         0.00008        -0.023 8        50.156           0.000 3         0.00003        -0.050 3        23.438  
I02  39036152.601 7 153182863.59807      -345.653 7        42.969    39036145.008 6 324481151.10706      -732.313 6        38.281  
I03         0.000 8         0.00008        -0.023 8        49.531           0.000 7         0.00007        -0.050 7        45.781  
I05         0.000 7         0.00007        -0.023 7        47.031           0.000 7         0.00007        -0.050 7        42.031  
I06  38480337.696 7 151001796.82107       -56.511 7        44.531    38480331.376 6 319860986.22406      -119.707 6        40.000  
I07         0.000 7         0.00007        -0.023 7        44.375           0.000 6         0.00006        -0.050 6        40.156  
I09  36193522.407 8 142028082.04608       -99.907 8        50.312    36193516.501 7 300851884.21607      -211.506 7        45.156  
I10  38859279.792 7 152488848.24307       -60.304 7        42.344    38859273.520 6 323010927.40006      -127.408 6        38.750  
> 2025 01 24  0 10  0.0000000  0  8      -260.685897045580
I01         0.000 8         0.00008         0.027 8        50.156           0.000 3         0.00003         0.058 3        22.344  
I02  39033504.321 7 153172471.87807      -347.004 7        42.969    39033497.092 6 324459138.71806      -735.007 6        38.906  
I03         0.000 8         0.00008         0.027 8        49.531           0.000 7         0.00007         0.058 7        45.781  
I05         0.000 7         0.00007         0.027 7        46.719           0.000 7         0.00007         0.058 7        42.344  
I06  38479905.553 7 151000101.74207       -56.374 7        44.531    38479899.339 6 319857395.58206      -119.503 6        40.312  
I07         0.000 7         0.00007         0.027 7        44.531           0.000 6         0.00006         0.058 6        40.312  
I09  36192759.715 8 142025089.35008       -99.554 8        50.312    36192754.021 7 300845544.91407      -210.957 7        45.312  
I10  38858820.380 7 152487044.82307       -59.921 7        42.344    38858813.898 6 323007107.34306      -127.085 6        39.062  
> 2025 01 24  0 10 30.0000000  0  8      -260.118552846075
I01         0.000 8         0.00008         0.018 8        50.312           0.000 4         0.00004         0.038 4        25.938  
I02  39030846.213 7 153162040.10507      -348.261 7        43.125    39030839.164 6 324437041.49706      -737.722 6        38.906  
I03         0.000 8         0.00008         0.018 8        49.531           0.000 7         0.00007         0.038 7        45.781  
I05         0.000 7         0.00007         0.018 7        46.562           0.000 7         0.00007         0.038 7        42.188  
I06  38479474.222 7 150998407.51307       -56.416 7        44.531    38479468.028 6 319853806.77306      -119.804 6        40.000  
I07         0.000 7         0.00007         0.018 7        44.375           0.000 6         0.00006         0.038 6        40.156  
I09  36191999.148 8 142022104.91908       -99.352 8        50.312    36191993.319 7 300839223.11107      -210.323 7        45.156  
I10  38858360.755 7 152485241.80007       -59.971 7        42.188    38858354.528 6 323003288.11706      -126.903 6        38.906  
> 2025 01 24  0 11  0.0000000  0  8      -260.842539617456
I01         0.000 8         0.00008         0.016 8        50.312           0.000 3         0.00003         0.033 3        22.188  
I02  39028177.955 7 153151568.60507      -349.653 7        43.281    39028170.308 6 324414860.12006      -740.703 6        39.062  
I03         0.000 8         0.00008         0.016 8        49.531           0.000 7         0.00007         0.033 7        45.781  
I05         0.000 7         0.00007         0.016 7        46.875           0.000 7         0.00007         0.033 7        42.031  
I06  38479042.432 7 150996714.17707       -56.395 7        44.531    38479036.029 6 319850219.84706      -119.324 6        40.000  
I07         0.000 7         0.00007         0.016 7        44.531           0.000 6         0.00006         0.033 6        40.156  
I09  36191240.698 8 142019128.79108       -99.140 8        50.156    36191235.001 7 300832918.90407      -209.835 7        45.312  
I10  38857901.383 7 152483439.20107       -59.853 7        42.188    38857895.178 6 322999469.81106      -127.046 6        39.062  
> 2025 01 24  0 11 30.0000000  0  8      -260.781404223547
I01         0.000 8         0.00008        -0.026 8        50.312           0.000 3         0.00003        -0.056 3        22.500  
I02  39025499.027 7 153141056.43507      -351.085 7        43.281    39025491.356 6 324392592.59006      -743.592 6        39.062  
I03         0.000 8         0.00008        -0.026 8        49.375           0.000 7         0.00007        -0.056 7        45.781  
I05         0.000 7         0.00007        -0.026 7        47.188           0.000 6         0.00006        -0.056 6        41.875  
I06  38478611.343 7 150995021.71407       -56.484 7        44.531    38478604.993 6 319846634.77006      -119.573 6        40.156  
I07         0.000 7         0.00007        -0.026 7        44.375           0.000 6         0.00006        -0.056 6        40.156  
I09  36190484.361 8 142016161.00208       -98.713 8        50.156    36190478.588 7 300826632.35507      -209.377 7        45.469  
I10  38857442.421 7 152481637.06207       -59.856 7        42.188    38857436.231 6 322995652.46606      -127.717 6        39.219  
> 2025 01 24  0 12  0.0000000  0  8      -261.965692320744
I01         0.000 8         0.00008        -0.014 8        50.156           0.000 3         0.00003        -0.030 3        21.406  
I02  39022809.812 7 153130504.83407      -352.270 7        43.438    39022802.187 6 324370241.53606      -746.473 6        39.375  
I03         0.000 8         0.00008        -0.014 8        49.375           0.000 7         0.00007        -0.030 7        45.781  
I05         0.000 7         0.00007        -0.014 7        47.344           0.000 7         0.00007        -0.030 7        42.031  
I06  38478179.983 7 150993330.14307       -56.570 7        44.688    38478173.426 6 319843051.56806      -119.277 6        40.156  
I07         0.000 7         0.00007        -0.014 7        44.375           0.000 6         0.00006        -0.030 6        40.156  
I09  36189730.050 8 142013201.66208       -98.571 8        50.000    36189724.337 7 300820363.69407      -208.756 7        45.312  
I10  38856982.877 7 152479835.37407       -59.839 7        42.031    38856976.621 6 322991836.05306      -127.205 6        39.062  
> 2025 01 24  0 12 30.0000000  0  8      -260.627678286877
I01         0.000 8         0.00008        -0.045 8        50.156           0.000 4         0.00004        -0.096 4        25.781  
I02  39020111.680 7 153119913.24807      -353.753 7        43.594    39020103.492 6 324347805.79006      -749.450 6        39.531  
I03         0.000 8         0.00008        -0.045 8        49.375           0.000 7         0.00007        -0.096 7        45.625  
I05         0.000 7         0.00007        -0.045 7        47.188           0.000 6         0.00006        -0.096 6        41.875  
I06  38477749.383 7 150991639.43307       -56.366 7        44.688    38477743.135 6 319839470.21706      -119.421 6        39.844  
I07         0.000 7         0.00007        -0.045 7        44.375           0.000 6         0.00006        -0.096 6        40.156  
I09  36188978.362 8 142010250.88408       -98.301 8        50.000    36188972.695 7 300814113.19007      -208.098 7        45.312  
I10  38856524.040 7 152478034.13607       -60.037 7        42.031    38856518.244 6 322988020.62906      -127.435 6        39.375  
> 2025 01 24  0 13  0.0000000  0  8      -260.450075506010
I01         0.000 8         0.00008        -0.023 8        50.000           0.000 3         0.00003        -0.048 3        23.281  
I02  39017402.469 7 153109282.28007      -354.984 7        43.594    39017394.648 6 324325286.61806      -752.093 6        39.688  
I03         0.000 8         0.00008        -0.023 8        49.375           0.000 7         0.00007        -0.048 7        45.625  
I05         0.000 7         0.00007        -0.023 7        47.188           0.000 6         0.00006        -0.048 6        41.875  
I06  38477318.990 7 150989949.65407       -56.294 7        44.688    38477312.581 6 319835890.83206      -119.251 6        40.000  
I07         0.000 7         0.00007        -0.023 7        44.375           0.000 6         0.00006        -0.048 6        40.000  
I09  36188228.625 8 142007308.72808       -98.032 8        50.000    36188223.060 7 300807880.93907      -207.445 7        45.469  
I10  38856065.207 7 152476233.37307       -60.118 7        42.031    38856059.366 6 322984206.19206      -126.944 6        39.219  
> 2025 01 24  0 13 30.0000000  0  8      -260.593094722566
I01         0.000 8         0.00008        -0.013 8        50.156           0.000 4         0.00004        -0.028 4        24.219  
I02  39014683.147 7 153098611.76707      -356.326 7        43.750    39014675.210 6 324302683.67006      -754.719 6        39.688  
I03         0.000 8         0.00008        -0.013 8        49.375           0.000 7         0.00007        -0.028 7        45.625  
I05         0.000 7         0.00007        -0.013 7        47.188           0.000 6         0.00006        -0.028 6        41.875  
I06  38476888.340 7 150988260.75907       -56.219 7        44.844    38476881.809 6 319832313.30506      -119.316 6        39.844  
I07         0.000 7         0.00007        -0.013 7        44.219           0.000 6         0.00006        -0.028 6        40.156  
I09  36187481.167 8 142004375.24208       -97.632 8        50.000    36187475.708 7 300801667.05807      -206.912 7        45.469  
I10  38855606.438 7 152474433.08907       -59.956 7        42.031    38855600.679 6 322980392.78106      -127.087 6        39.219  
> 2025 01 24  0 14  0.0000000  0  8      -260.714607302162
I01         0.000 8         0.00008        -0.034 8        50.000           0.000 3         0.00003        -0.073 3        23.750  
I02  39011954.191 7 153087902.47007      -357.722 7        43.750    39011946.257 6 324279998.57806      -757.464 6        40.000  
I03         0.000 8         0.00008        -0.034 8        49.375           0.000 7         0.00007        -0.073 7        45.625  
I05         0.000 7         0.00007        -0.034 7        47.500           0.000 6         0.00006        -0.073 6        40.781  
I06  38476458.417 7 150986572.79407       -56.233 7        44.688    38476451.713 6 319828737.76106      -119.195 6        39.844  
I07         0.000 7         0.00007        -0.034 7        44.219           0.000 6         0.00006        -0.073 6        40.156  
I09  36186735.701 8 142001450.53708       -97.418 8        50.000    36186730.158 7 300795471.76707      -206.188 7        45.469  
I10  38855147.647 6 152472633.28706       -60.112 6        41.875    38855142.163 6 322976580.37106      -127.140 6        39.219  
> 2025 01 24  0 14 30.0000000  0  8      -260.474555671675
I01         0.000 8         0.00008        -0.077 8        50.156           0.000 4         0.00004        -0.163 4        26.094  
I02  39009215.109 7 153077154.03107      -359.132 7        43.750    39009207.409 6 324257230.58106      -760.622 6        40.000  
I03         0.000 8         0.00008        -0.077 8        49.375           0.000 7         0.00007        -0.163 7        45.625  
I05         0.000 7         0.00007        -0.077 7        47.500           0.000 6         0.00006        -0.163 6        41.875  
I06  38476028.453 7 150984885.75307       -56.361 7        44.688    38476021.850 6 319825164.18006      -119.250 6        40.000  
I07         0.000 7         0.00007        -0.077 7        44.375           0.000 6         0.00006        -0.163 6        40.000  
I09  36185992.693 8 141998534.70208       -97.172 8        50.000    36185987.311 7 300789295.27607      -205.838 7        45.469  
I10  38854689.201 6 152470833.98106       -60.049 6        41.875    38854683.543 6 322972769.04006      -127.180 6        39.219  
> 2025 01 24  0 15  0.0000000  0  8      -260.542346079539
I01         0.000 8         0.00008        -0.037 8        50.000           0.000 4         0.00004        -0.077 4        24.844  
I02  39006466.069 7 153066366.48707      -360.192 7        43.906    39006458.402 6 324234379.72906      -763.098 6        40.156  
I03         0.000 8         0.00008        -0.037 8        49.219           0.000 7         0.00007        -0.077 7        45.625  
I05         0.000 7         0.00007        -0.037 7        47.500           0.000 6         0.00006        -0.077 6        41.875  
I06  38475598.986 7 150983199.62507       -56.339 7        44.844    38475591.939 6 319821592.52906      -119.137 6        40.000  
I07         0.000 7         0.00007        -0.037 7        44.219           0.000 6         0.00006        -0.077 6        40.000  
I09  36185251.802 8 141995627.77108       -96.818 8        50.000    36185246.378 7 300783137.65007      -204.978 7        45.469  
I10  38854231.022 6 152469035.18506       -59.975 6        41.875    38854225.370 6 322968958.77806      -127.040 6        39.219  
> 2025 01 24  0 15 30.0000000  0  8      -260.723117617624
I01         0.000 8         0.00008        -0.026 8        50.000           0.000 3         0.00003        -0.055 3        23.594  
I02  39003707.497 7 153055540.37407      -361.538 7        43.750    39003699.722 6 324211447.19106      -765.883 6        40.156  
I03         0.000 8         0.00008        -0.026 8        49.219           0.000 7         0.00007        -0.055 7        45.469  
I05         0.000 7         0.00007        -0.026 7        47.344           0.000 7         0.00007        -0.055 7        42.031  
I06  38475169.461 7 150981514.41807       -56.047 7        44.688    38475162.390 6 319818022.82006      -118.925 6        39.844  
I07         0.000 7         0.00007        -0.026 7        44.062           0.000 6         0.00006        -0.055 6        39.844  
I09  36184513.294 8 141992729.89908       -96.531 8        49.844    36184507.967 7 300776999.20607      -204.361 7        45.312  
I10  38853772.470 6 152467236.90106       -60.033 6        41.719    38853766.937 6 322965149.60806      -126.979 6        39.062  
> 2025 01 24  0 16  0.0000000  0  8      -260.959744448405
I01         0.000 8         0.00008        -0.109 8        50.000           0.000 4         0.00004        -0.231 4        25.469  
I02  39000938.741 7 153044675.14907      -363.048 7        43.750    39000930.777 6 324188431.79306      -768.851 6        40.312  
I03         0.000 8         0.00008        -0.109 8        49.219           0.000 7         0.00007        -0.231 7        45.469  
I05         0.000 7         0.00007        -0.109 7        47.344           0.000 6         0.00006        -0.231 6        41.719  
I06  38474740.009 7 150979830.17407       -56.476 7        44.844    38474733.239 6 319814455.16006      -119.215 6        39.844  
I07         0.000 7         0.00007        -0.109 7        44.062           0.000 6         0.00006        -0.231 6        39.688  
I09  36183777.164 8 141989841.10008       -96.189 8        49.844    36183771.798 7 300770879.97807      -203.853 7        45.156  
I10  38853314.693 6 152465439.16806       -60.294 6        41.875    38853308.849 6 322961341.58106      -127.066 6        39.062  
> 2025 01 24  0 16 30.0000000  0  8      -261.373651117846
I01         0.000 8         0.00008        -0.008 8        50.000           0.000 3         0.00003        -0.017 3        22.500  
I02  38998160.015 7 153033771.74007      -364.091 7        43.906    38998151.989 6 324165335.53406      -771.285 6        40.156  
I03         0.000 8         0.00008        -0.008 8        49.219           0.000 7         0.00007        -0.017 7        45.469  
I05         0.000 7         0.00007        -0.008 7        47.188           0.000 6         0.00006        -0.017 6        41.875  
I06  38474311.232 7 150978146.88407       -55.994 7        44.844    38474303.842 6 319810889.52206      -118.747 6        40.000  
I07         0.000 7         0.00007        -0.008 7        44.062           0.000 6         0.00006        -0.017 6        39.844  
I09  36183043.321 8 141986961.47408       -95.804 8        49.844    36183037.822 7 300764780.19207      -202.979 7        45.312  
I10  38852856.599 6 152463641.96006       -59.966 6        41.875    38852850.676 6 322957534.68106      -126.796 6        38.906  
> 2025 01 24  0 17  0.0000000  0  8      -261.784949866253
I01         0.000 8         0.00008        -0.013 8        49.844           0.000 3         0.00003        -0.027 3        23.750  
I02  38995371.593 7 153022829.25607      -365.493 7        43.906    38995363.619 6 324142156.49606      -774.162 6        40.156  
I03         0.000 8         0.00008        -0.013 8        49.219           0.000 7         0.00007        -0.027 7        45.469  
I05         0.000 7         0.00007        -0.013 7        47.344           0.000 6         0.00006        -0.027 6        41.875  
I06  38473882.630 7 150976464.54007       -56.105 7        44.844    38473875.101 6 319807325.88006      -118.862 6        39.844  
I07         0.000 7         0.00007        -0.013 7        44.062           0.000 6         0.00006        -0.027 6        39.688  
I09  36182311.932 8 141984091.11808       -95.510 8        49.844    36182306.307 7 300758700.03207      -202.432 7        45.156  
I10  38852398.753 7 152461845.28907       -59.489 7        42.031    38852392.866 6 322953728.93006      -126.851 6        38.750  
> 2025 01 24  0 17 30.0000000  0  8      -262.077642754139
I01         0.000 8         0.00008        -0.061 8        49.844           0.000 4         0.00004        -0.128 4        24.688  
I02  38992573.619 7 153011848.64907      -366.708 7        44.062    38992565.118 6 324118896.69306      -776.835 6        40.312  
I03         0.000 8         0.00008        -0.061 8        49.219           0.000 7         0.00007        -0.128 7        45.469  
I05         0.000 7         0.00007        -0.061 7        47.344           0.000 6         0.00006        -0.128 6        41.875  
I06  38473454.120 7 150974783.15207       -55.995 7        44.844    38473446.886 6 319803764.27606      -118.937 6        39.844  
I07         0.000 7         0.00007        -0.061 7        44.062           0.000 6         0.00006        -0.128 6        39.688  
I09  36181582.577 8 141981230.12708       -95.300 8        49.688    36181577.190 7 300752639.70907      -201.863 7        45.156  
I10  38851940.931 6 152460049.18806       -60.047 6        41.875    38851935.209 6 322949924.36506      -127.080 6        38.750  
> 2025 01 24  0 18  0.0000000  0  8      -262.607002746220
I01         0.000 8         0.00008        -0.059 8        50.000           0.000 3         0.00003        -0.124 3        22.656  
I02  38989765.721 7 153000829.70207      -368.023 7        44.062    38989756.902 6 324095555.69006      -779.305 6        40.312  
I03         0.000 8         0.00008        -0.059 8        49.219           0.000 7         0.00007        -0.124 7        45.312  
I05         0.000 7         0.00007        -0.059 7        47.500           0.000 7         0.00007        -0.124 7        42.031  
I06  38473025.904 7 150973102.73707       -56.239 7        44.844    38473018.250 6 319800204.70506      -118.741 6        39.844  
I07         0.000 7         0.00007        -0.059 7        44.062           0.000 6         0.00006        -0.124 6        39.688  
I09  36180856.076 8 141978378.58008       -94.996 8        49.844    36180850.505 7 300746599.39607      -201.144 7        45.000  
I10  38851483.516 6 152458253.63806       -59.896 6        41.719    38851477.573 6 322946120.99706      -126.951 6        38.750  
> 2025 01 24  0 18 30.0000000  0  8      -262.510323134730
I01         0.000 8         0.00008        -0.097 8        49.844           0.000 3         0.00003        -0.206 3        23.750  
I02  38986948.181 7 152989773.09507      -369.446 7        44.062    38986939.675 6 324072134.90306      -782.170 6        40.156  
I03         0.000 8         0.00008        -0.097 8        49.219           0.000 7         0.00007        -0.206 7        45.312  
I05         0.000 7         0.00007        -0.097 7        47.500           0.000 6         0.00006        -0.206 6        41.719  
I06  38472598.103 7 150971423.28007       -56.306 7        45.000    38472590.460 6 319796647.19006      -118.940 6        39.688  
I07         0.000 7         0.00007        -0.097 7        44.062           0.000 6         0.00006        -0.206 6        39.688  
I09  36180131.872 8 141975536.53608       -94.701 8        49.844    36180126.189 7 300740579.20107      -200.596 7        44.844  
I10  38851026.245 6 152456458.68206       -59.861 6        41.875    38851020.245 6 322942318.86706      -127.077 6        38.750  
> 2025 01 24  0 19  0.0000000  0  8      -263.018188847738
I01         0.000 8         0.00008        -0.023 8        49.844           0.000 3         0.00003        -0.049 3        23.281  
I02  38984120.769 7 152978678.26307      -370.582 7        44.219    38984112.228 6 324048633.15906      -785.104 6        40.156  
I03         0.000 8         0.00008        -0.023 8        49.219           0.000 7         0.00007        -0.049 7        45.469  
I05         0.000 7         0.00007        -0.023 7        47.500           0.000 6         0.00006        -0.049 6        41.875  
I06  38472170.325 7 150969744.78407       -55.987 7        45.000    38472162.664 6 319793091.70806      -118.713 6        39.844  
I07         0.000 7         0.00007        -0.023 7        44.062           0.000 6         0.00006        -0.049 6        39.531  
I09  36179410.109 8 141972704.07808       -94.268 8        49.844    36179404.240 7 300734579.32307      -199.664 7        44.844  
I10  38850568.858 7 152454664.31407       -59.432 7        42.031    38850562.957 6 322938517.98306      -126.661 6        38.750  
> 2025 01 24  0 19 30.0000000  0  8      -264.509755717773
I01         0.000 8         0.00008        -0.019 8        50.000           0.000 3         0.00003        -0.041 3        23.906  
I02  38981283.520 7 152967545.75907      -371.628 7        44.219    38981274.851 6 324025051.62606      -786.973 6        40.469  
I03         0.000 8         0.00008        -0.019 8        49.062           0.000 7         0.00007        -0.041 7        45.312  
I05         0.000 7         0.00007        -0.019 7        47.656           0.000 7         0.00007        -0.041 7        42.188  
I06  38471742.542 7 150968067.32107       -56.164 7        45.156    38471734.543 6 319789538.39506      -118.290 6        39.688  
I07         0.000 7         0.00007        -0.019 7        44.219           0.000 6         0.00006        -0.041 6        39.688  
I09  36178690.382 8 141969881.32308       -93.926 8        49.844    36178684.462 7 300728599.99507      -199.052 7        45.000  
I10  38850111.522 7 152452870.53507       -59.908 7        42.188    38850105.174 6 322934718.38306      -126.553 6        38.594  
> 2025 01 24  0 20  0.0000000  0  8      -263.538890065070
I01         0.000 8         0.00008        -0.060 8        50.000           0.000 3         0.00003        -0.128 3        23.750  
I02  38978437.317 7 152956375.35407      -373.103 7        44.375    38978428.814 6 324001389.78406      -790.615 6        39.688  
I03         0.000 8         0.00008        -0.060 8        49.062           0.000 7         0.00007        -0.128 7        44.531  
I05         0.000 7         0.00007        -0.060 7        47.812           0.000 6         0.00006        -0.128 6        41.875  
I06  38471315.448 7 150966390.83107       -55.918 7        45.156    38471307.493 6 319785987.18206      -118.337 6        39.062  
I07         0.000 7         0.00007        -0.060 7        44.219           0.000 6         0.00006        -0.128 6        38.906  
I09  36177973.890 8 141967068.32808       -93.621 8        49.844    36177968.008 7 300722641.34107      -198.419 7        44.219  
I10  38849654.868 7 152451077.38307       -60.029 7        42.031    38849648.814 6 322930920.05706      -126.378 6        37.812  
> 2025 01 24  0 20 30.0000000  0  8      -263.670762613914
I01         0.000 8         0.00008        -0.050 8        50.156           0.000 3         0.00003        -0.106 3        22.500  
I02  38975581.152 7 152945166.84707      -374.337 7        44.219    38975572.616 6 323977647.25706      -792.805 6        40.469  
I03         0.000 8         0.00008        -0.050 8        49.062           0.000 7         0.00007        -0.106 7        45.312  
I05         0.000 7         0.00007        -0.050 7        47.969           0.000 6         0.00006        -0.106 6        41.562  
I06  38470888.644 7 150964715.35507       -56.166 7        45.156    38470880.676 6 319782438.07806      -118.167 6        39.688  
I07         0.000 7         0.00007        -0.050 7        44.219           0.000 6         0.00006        -0.106 6        39.688  
I09  36177259.554 8 141964265.17508       -93.311 8        49.688    36177253.539 7 300716703.52907      -197.556 7        44.844  
I10  38849198.316 7 152449284.82507       -59.663 7        42.188    38849191.863 6 322927123.01206      -126.828 6        38.594  
> 2025 01 24  0 21  0.0000000  0  8      -263.984883924956
I01         0.000 8         0.00008        -0.061 8        50.156           0.000 4         0.00004        -0.128 4        24.531  
I02  38972715.237 7 152933921.83507      -375.539 7        44.219    38972707.138 6 323953827.39106      -795.649 6        40.469  
I03         0.000 8         0.00008        -0.061 8        49.062           0.000 7         0.00007        -0.128 7        45.469  
I05         0.000 7         0.00007        -0.061 7        47.969           0.000 6         0.00006        -0.128 6        41.094  
I06  38470461.995 7 150963040.86807       -55.956 7        45.156    38470453.793 6 319778891.09106      -118.429 6        39.688  
I07         0.000 7         0.00007        -0.061 7        44.375           0.000 6         0.00006        -0.128 6        39.688  
I09  36176547.711 8 141961471.94308       -93.057 8        49.688    36176541.802 7 300710786.73407      -197.112 7        44.844  
I10  38848741.610 7 152447492.88607       -59.616 7        42.031    38848735.150 6 322923327.29006      -126.696 6        38.750  
> 2025 01 24  0 21 30.0000000  0  8      -263.694965205540
I01         0.000 8         0.00008        -0.006 8        50.156           0.000 4         0.00004        -0.014 4        24.844  
I02  38969840.237 7 152922638.88007      -376.525 7        44.219    38969831.820 6 323929927.16306      -797.916 6        40.469  
I03         0.000 8         0.00008        -0.006 8        49.062           0.000 7         0.00007        -0.014 7        45.312  
I05         0.000 7         0.00007        -0.006 7        47.656           0.000 6         0.00006        -0.014 6        41.094  
I06  38470035.664 7 150961367.43507       -55.656 7        45.312    38470027.651 6 319775346.31906      -118.106 6        39.688  
I07         0.000 7         0.00007        -0.006 7        44.531           0.000 6         0.00006        -0.014 6        39.844  
I09  36175838.546 8 141958688.73308       -92.625 8        49.531    36175832.559 7 300704891.17307      -196.130 7        44.844  
I10  38848285.354 7 152445701.57207       -59.835 7        42.188    38848278.739 6 322919532.93106      -126.503 6        38.750  
> 2025 01 24  0 22  0.0000000  0  8      -264.278095620408
I01         0.000 8         0.00008        -0.060 8        50.000           0.000 3         0.00003        -0.126 3        22.031  
I02  38966955.341 7 152911319.31107      -378.139 7        44.219    38966946.907 6 323905949.37606      -800.762 6        40.156  
I03         0.000 8         0.00008        -0.060 8        49.062           0.000 7         0.00007        -0.126 7        45.469  
I05         0.000 7         0.00007        -0.060 7        47.656           0.000 6         0.00006        -0.126 6        40.781  
I06  38469609.130 7 150959695.02507       -55.760 7        45.312    38469601.175 6 319771803.71106      -118.036 6        39.688  
I07         0.000 7         0.00007        -0.060 7        44.375           0.000 6         0.00006        -0.126 6        40.000  
I09  36175131.917 8 141955915.66908       -92.421 8        49.531    36175125.779 7 300699017.09807      -195.600 7        45.000  
I10  38847829.093 7 152443910.90507       -59.695 7        42.188    38847822.342 6 322915739.92006      -126.713 6        38.594  
> 2025 01 24  0 22 30.0000000  0  8      -263.943960419987
I01         0.000 8         0.00008        -0.028 8        50.000           0.000 3         0.00003        -0.060 3        23.750  
I02  38964061.123 7 152899962.26007      -379.236 7        44.219    38964053.114 6 323881892.18906      -803.194 6        40.312  
I03         0.000 8         0.00008        -0.028 8        49.062           0.000 7         0.00007        -0.060 7        45.469  
I05         0.000 7         0.00007        -0.028 7        47.656           0.000 6         0.00006        -0.060 6        41.562  
I06  38469183.565 7 150958023.64807       -55.625 7        45.312    38469175.466 6 319768263.31106      -117.887 6        39.531  
I07         0.000 7         0.00007        -0.028 7        44.531           0.000 6         0.00006        -0.060 6        39.688  
I09  36174427.816 8 141953152.75008       -92.086 8        49.531    36174421.876 7 300693164.51107      -194.875 7        44.844  
I10  38847373.077 7 152442120.89707       -59.737 7        42.344    38847366.195 6 322911948.30006      -126.212 6        38.594  
> 2025 01 24  0 23  0.0000000  0  8      -263.692562634185
I01         0.000 8         0.00008        -0.112 8        50.000           0.000 4         0.00004        -0.237 4        25.469  
I02  38961158.085 7 152888568.23507      -380.691 7        44.062    38961149.571 6 323857756.68506      -806.501 6        40.000  
I03         0.000 8         0.00008        -0.112 8        49.219           0.000 7         0.00007        -0.237 7        45.469  
I05         0.000 7         0.00007        -0.112 7        47.656           0.000 7         0.00007        -0.237 7        42.344  
I06  38468757.660 7 150956353.30207       -55.837 7        45.312    38468749.585 6 319764725.06706      -118.298 6        39.531  
I07         0.000 7         0.00007        -0.112 7        44.531           0.000 6         0.00006        -0.237 6        39.844  
I09  36173726.380 8 141950400.13608       -91.810 8        49.688    36173720.723 7 300687333.74307      -194.261 7        45.000  
I10  38846917.181 7 152440331.54407       -59.749 7        42.344    38846910.396 6 322908158.07406      -126.473 6        38.594  
> 2025 01 24  0 23 30.0000000  0  8      -263.591353363310
I01         0.000 8         0.00008        -0.045 8        50.312           0.000 4         0.00004        -0.095 4        24.531  
I02  38958245.007 7 152877137.56707      -381.689 7        44.062    38958236.876 6 323833543.57706      -808.248 6        40.312  
I03         0.000 8         0.00008        -0.045 8        49.062           0.000 7         0.00007        -0.095 7        45.469  
I05         0.000 7         0.00007        -0.045 7        47.656           0.000 7         0.00007        -0.095 7        42.656  
I06  38468332.419 7 150954683.97107       -55.631 7        45.312    38468324.578 6 319761188.99506      -117.754 6        39.375  
I07         0.000 7         0.00007        -0.045 7        44.531           0.000 6         0.00006        -0.095 6        39.688  
I09  36173027.605 8 141947657.89808       -91.241 8        49.688    36173021.847 7 300681524.97607      -193.400 7        45.000  
I10  38846461.534 7 152438542.87107       -59.918 7        42.500    38846454.439 6 322904369.28506      -126.504 6        38.594  
> 2025 01 24  0 24  0.0000000  0  8      -263.435303504007
I01         0.000 8         0.00008        -0.071 8        50.625           0.000 4         0.00004        -0.150 4        25.156  
I02  38955322.958 7 152865669.86207      -382.933 7        44.219    38955314.536 6 323809252.00606      -811.240 6        40.781  
I03         0.000 8         0.00008        -0.071 8        49.219           0.000 7         0.00007        -0.150 7        45.469  
I05         0.000 7         0.00007        -0.071 7        47.500           0.000 7         0.00007        -0.150 7        42.188  
I06  38467907.354 7 150953015.71807       -55.655 7        45.156    38467899.395 6 319757655.19506      -118.004 6        39.531  
I07         0.000 7         0.00007        -0.071 7        44.531           0.000 6         0.00006        -0.150 6        39.688  
I09  36172331.393 8 141944926.07508       -90.888 8        49.844    36172325.716 7 300675738.26607      -192.803 7        45.156  
I10  38846006.399 7 152436754.88507       -59.869 7        42.500    38845998.888 6 322900581.95106      -126.328 6        38.438  
> 2025 01 24  0 24 30.0000000  0  8      -263.680986910467
I01         0.000 8         0.00008        -0.051 8        50.781           0.000 4         0.00004        -0.108 4        25.156  
I02  38952391.501 7 152854165.99307      -384.213 7        44.375    38952383.301 6 323784883.81906      -813.469 6        40.781  
I03         0.000 8         0.00008        -0.051 8        49.219           0.000 7         0.00007        -0.108 7        45.469  
I05         0.000 7         0.00007        -0.051 7        47.500           0.000 7         0.00007        -0.108 7        42.344  
I06  38467482.617 7 150951348.51607       -55.740 7        45.156    38467474.299 6 319754123.62106      -117.844 6        39.531  
I07         0.000 7         0.00007        -0.051 7        44.688           0.000 6         0.00006        -0.108 6        39.375  
I09  36171637.938 8 141942204.81808       -90.664 8        49.844    36171632.434 7 300669973.91407      -191.876 7        45.312  
I10  38845550.773 7 152434967.56307       -59.501 7        42.812    38845543.342 6 322896796.03106      -126.279 6        38.438  
> 2025 01 24  0 25  0.0000000  0  8      -263.615191916077
I01         0.000 8         0.00008        -0.082 8        50.781           0.000 4         0.00004        -0.174 4        24.531  
I02  38949450.698 7 152842626.06107      -385.570 7        44.219    38949442.488 6 323760439.26206      -816.389 6        40.625  
I03         0.000 8         0.00008        -0.082 8        49.219           0.000 7         0.00007        -0.174 7        45.469  
I05         0.000 7         0.00007        -0.082 7        47.656           0.000 7         0.00007        -0.174 7        42.188  
I06  38467058.248 7 150949682.38707       -55.546 7        45.156    38467049.764 6 319750594.32906      -117.760 6        39.688  
I07         0.000 7         0.00007        -0.082 7        44.531           0.000 6         0.00006        -0.174 6        39.531  
I09  36170947.235 8 141939494.18608       -90.276 8        49.688    36170941.906 7 300664232.08907      -191.226 7        45.469  
I10  38845095.511 7 152433180.96107       -59.799 7        42.656    38845088.013 6 322893011.63106      -126.240 6        38.125  
> 2025 01 24  0 25 30.0000000  0  8      -264.155878352365
I01         0.000 8         0.00008        -0.029 8        50.938           0.000 4         0.00004        -0.062 4        26.250  
I02  38946500.799 7 152831049.36907      -386.491 7        44.219    38946492.778 6 323735916.82606      -818.811 6        40.781  
I03         0.000 8         0.00008        -0.029 8        49.219           0.000 7         0.00007        -0.062 7        45.312  
I05         0.000 7         0.00007        -0.029 7        47.656           0.000 7         0.00007        -0.062 7        42.500  
I06  38466633.739 7 150948017.34607       -55.424 7        45.312    38466625.966 6 319747067.34606      -117.542 6        39.688  
I07         0.000 7         0.00007        -0.029 7        44.688           0.000 6         0.00006        -0.062 6        39.375  
I09  36170259.248 8 141936794.25108       -89.850 8        49.688    36170253.775 7 300658512.92507      -190.467 7        45.469  
I10  38844640.416 7 152431395.07807       -59.508 7        42.656    38844633.114 6 322889228.74106      -126.179 6        38.125  
> 2025 01 24  0 26  0.0000000  0  8      -264.285953151790
